[
    {
        "id": "100000010",
        "name": "Энхтайван найрамдлын ордон",
        "longitude": 106.90221,
        "latitude": 47.91592
    },
    {
        "id": "100000014",
        "name": "Рашааны гудамж 3",
        "longitude": 106.91516,
        "latitude": 47.94902
    },
    {
        "id": "100000015",
        "name": "Өвөр-Согоот 1-р зогсоол",
        "longitude": 106.92961,
        "latitude": 48.01423
    },
    {
        "id": "000000020",
        "name": "5 Шар",
        "longitude": 106.81484,
        "latitude": 47.90965
    },
    {
        "id": "000000018",
        "name": "Монгол хюндэй киа компани",
        "longitude": 106.82659,
        "latitude": 47.91061
    },
    {
        "id": "000000011",
        "name": "32-р байр",
        "longitude": 106.83359,
        "latitude": 47.91113
    },
    {
        "id": "000000009",
        "name": "Хар хорин",
        "longitude": 106.84054,
        "latitude": 47.91166
    },
    {
        "id": "000000006",
        "name": "Цамбагарав",
        "longitude": 106.84736,
        "latitude": 47.9122
    },
    {
        "id": "000000004",
        "name": "Саппоро",
        "longitude": 106.85283,
        "latitude": 47.91256
    },
    {
        "id": "000000147",
        "name": "3-р эмнэлэг",
        "longitude": 106.86022,
        "latitude": 47.91305
    },
    {
        "id": "000000149",
        "name": "10-р хороолол",
        "longitude": 106.86824,
        "latitude": 47.91361
    },
    {
        "id": "000000151",
        "name": "25-р Эмийн сан",
        "longitude": 106.87949,
        "latitude": 47.91437
    },
    {
        "id": "000001225",
        "name": "ТБД андууд",
        "longitude": 106.88725,
        "latitude": 47.91471
    },
    {
        "id": "000000274",
        "name": "Баруун 4 зам",
        "longitude": 106.89752,
        "latitude": 47.91535
    },
    {
        "id": "000000273",
        "name": "Улсын Их Дэлгүүр",
        "longitude": 106.90354,
        "latitude": 47.91585
    },
    {
        "id": "000000279",
        "name": "Сүхбаатарын талбай",
        "longitude": 106.9179,
        "latitude": 47.91675
    },
    {
        "id": "000000281",
        "name": "Өргөө амаржих газар",
        "longitude": 106.92632,
        "latitude": 47.918
    },
    {
        "id": "000000369",
        "name": "Бөхийн өргөө",
        "longitude": 106.93362,
        "latitude": 47.91839
    },
    {
        "id": "000000371",
        "name": "Зүүн 4 зам",
        "longitude": 106.94104,
        "latitude": 47.91885
    },
    {
        "id": "000000373",
        "name": "Жуковын музей",
        "longitude": 106.95157,
        "latitude": 47.91739
    },
    {
        "id": "000000375",
        "name": "Монгол кино үйлдвэр",
        "longitude": 106.9605,
        "latitude": 47.91662
    },
    {
        "id": "000000377",
        "name": "Баянзүрх дүүрэг",
        "longitude": 106.96512,
        "latitude": 47.91621
    },
    {
        "id": "000000379",
        "name": "Офицеруудын ордон",
        "longitude": 106.97028,
        "latitude": 47.9158
    },
    {
        "id": "000000380",
        "name": "Офицеруудын ордон",
        "longitude": 106.97022,
        "latitude": 47.91616
    },
    {
        "id": "000000378",
        "name": "Баянзүрх дүүрэг",
        "longitude": 106.96472,
        "latitude": 47.91662
    },
    {
        "id": "000000376",
        "name": "Монгол кино үйлдвэр",
        "longitude": 106.95984,
        "latitude": 47.91705
    },
    {
        "id": "000000374",
        "name": "Жуковын музей",
        "longitude": 106.94882,
        "latitude": 47.91804
    },
    {
        "id": "000000372",
        "name": "Зүүн 4 зам",
        "longitude": 106.94169,
        "latitude": 47.919
    },
    {
        "id": "000000370",
        "name": "Хөдөлмөрийн яам",
        "longitude": 106.93232,
        "latitude": 47.91849
    },
    {
        "id": "000000585",
        "name": "МУБИС",
        "longitude": 106.92596,
        "latitude": 47.91811
    },
    {
        "id": "000000193",
        "name": "Мөнгөн завьяа",
        "longitude": 106.90946,
        "latitude": 47.91655
    },
    {
        "id": "000000155",
        "name": "Баруун 4 зам",
        "longitude": 106.89281,
        "latitude": 47.91517
    },
    {
        "id": "000000153",
        "name": "ТБД андууд",
        "longitude": 106.8863,
        "latitude": 47.9149
    },
    {
        "id": "000000152",
        "name": "25-р эмийн сан",
        "longitude": 106.87856,
        "latitude": 47.91456
    },
    {
        "id": "000000150",
        "name": "10-р хороолол",
        "longitude": 106.86697,
        "latitude": 47.91392
    },
    {
        "id": "000000148",
        "name": "3-р эмнэлэг",
        "longitude": 106.85913,
        "latitude": 47.91331
    },
    {
        "id": "000000005",
        "name": "Саппоро",
        "longitude": 106.85172,
        "latitude": 47.9128
    },
    {
        "id": "000000007",
        "name": "Цамбагарав",
        "longitude": 106.8453,
        "latitude": 47.91235
    },
    {
        "id": "000000008",
        "name": "19-р байр",
        "longitude": 106.83945,
        "latitude": 47.9119
    },
    {
        "id": "000000010",
        "name": "32-р байр",
        "longitude": 106.83255,
        "latitude": 47.91136
    },
    {
        "id": "000000019",
        "name": "Та Чи",
        "longitude": 106.824,
        "latitude": 47.9107
    },
    {
        "id": "000001412",
        "name": "5 Шар",
        "longitude": 106.81549,
        "latitude": 47.91006
    },
    {
        "id": "000000437",
        "name": "ШАР ХАДНЫ ЭЦЭС",
        "longitude": 107.00545,
        "latitude": 47.93451
    },
    {
        "id": "000000436",
        "name": "Да хүрээ зах",
        "longitude": 107.00532,
        "latitude": 47.93026
    },
    {
        "id": "000000434",
        "name": "Цахлай",
        "longitude": 106.99976,
        "latitude": 47.92722
    },
    {
        "id": "000000431",
        "name": "Эрдэнэтолгой",
        "longitude": 106.99444,
        "latitude": 47.92422
    },
    {
        "id": "000000429",
        "name": "16-р хороолол",
        "longitude": 106.9841,
        "latitude": 47.92376
    },
    {
        "id": "000000427",
        "name": "72-р хотхон",
        "longitude": 106.97403,
        "latitude": 47.92231
    },
    {
        "id": "000000584",
        "name": "Алдар спорт хороо",
        "longitude": 106.97345,
        "latitude": 47.91786
    },
    {
        "id": "000001154",
        "name": "Макс Малл",
        "longitude": 106.89122,
        "latitude": 47.91585
    },
    {
        "id": "000000159",
        "name": "Модны 2",
        "longitude": 106.8909,
        "latitude": 47.91914
    },
    {
        "id": "000000182",
        "name": "Москва ресторан",
        "longitude": 106.88093,
        "latitude": 47.92297
    },
    {
        "id": "000000165",
        "name": "Өргөө кино театр",
        "longitude": 106.87491,
        "latitude": 47.92282
    },
    {
        "id": "000000164",
        "name": "3,4-р хороололын эцэс",
        "longitude": 106.86711,
        "latitude": 47.92255
    },
    {
        "id": "000000163",
        "name": "Дүүхээ дэлгүүр",
        "longitude": 106.8686,
        "latitude": 47.92231
    },
    {
        "id": "000000166",
        "name": "11-р байр",
        "longitude": 106.87282,
        "latitude": 47.92244
    },
    {
        "id": "000000167",
        "name": "Парадокс",
        "longitude": 106.87834,
        "latitude": 47.92258
    },
    {
        "id": "000000168",
        "name": "Сентоза",
        "longitude": 106.88698,
        "latitude": 47.92292
    },
    {
        "id": "000001001",
        "name": "Модны 2",
        "longitude": 106.89063,
        "latitude": 47.91905
    },
    {
        "id": "000000583",
        "name": "Генерал худалдааны төв",
        "longitude": 106.97389,
        "latitude": 47.9194
    },
    {
        "id": "000000426",
        "name": "72-р хотхон",
        "longitude": 106.97434,
        "latitude": 47.92292
    },
    {
        "id": "000000428",
        "name": "16-р хороолол",
        "longitude": 106.98147,
        "latitude": 47.92361
    },
    {
        "id": "000000430",
        "name": "Эрдэнэтолгой",
        "longitude": 106.99167,
        "latitude": 47.92396
    },
    {
        "id": "000000432",
        "name": "Эрдэнэтолгой-2",
        "longitude": 106.99685,
        "latitude": 47.92451
    },
    {
        "id": "000000433",
        "name": "Цахлай",
        "longitude": 107.00027,
        "latitude": 47.92717
    },
    {
        "id": "000000435",
        "name": "Да хүрээ зах",
        "longitude": 107.00589,
        "latitude": 47.93044
    },
    {
        "id": "000001230",
        "name": "ШАР ХАДНЫ ЭЦЭС",
        "longitude": 107.00584,
        "latitude": 47.93459
    },
    {
        "id": "000000402",
        "name": "ХАЛДВАРТЫН ЭМНЭЛЭГ",
        "longitude": 106.94841,
        "latitude": 47.91272
    },
    {
        "id": "000000400",
        "name": "Баянзүрх их дэлгүүр",
        "longitude": 106.94395,
        "latitude": 47.91348
    },
    {
        "id": "000000047",
        "name": "Сүү хувьцаат компани",
        "longitude": 106.8187,
        "latitude": 47.91267
    },
    {
        "id": "000000049",
        "name": "Цахилгаан тээвэр",
        "longitude": 106.8184,
        "latitude": 47.91654
    },
    {
        "id": "000000051",
        "name": "21-р хороолол",
        "longitude": 106.81699,
        "latitude": 47.92084
    },
    {
        "id": "000000053",
        "name": "Сонгино хайрхан дүүрэг",
        "longitude": 106.81639,
        "latitude": 47.92462
    },
    {
        "id": "000000055",
        "name": "Давхар дэлгүүр",
        "longitude": 106.81704,
        "latitude": 47.9291
    },
    {
        "id": "000000096",
        "name": "Өндөр настан",
        "longitude": 106.8158,
        "latitude": 47.93411
    },
    {
        "id": "000000098",
        "name": "Шинэ давхар",
        "longitude": 106.81498,
        "latitude": 47.9371
    },
    {
        "id": "000000650",
        "name": "Хилчин хотхон",
        "longitude": 106.8161,
        "latitude": 47.94246
    },
    {
        "id": "000000100",
        "name": "Цэргийн анги",
        "longitude": 106.82237,
        "latitude": 47.94514
    },
    {
        "id": "000000102",
        "name": "7-р хороо",
        "longitude": 106.82528,
        "latitude": 47.94892
    },
    {
        "id": "000000104",
        "name": "Баян хошуу хуучин эцэс",
        "longitude": 106.82633,
        "latitude": 47.95404
    },
    {
        "id": "000000106",
        "name": "Зүүн салааны 1-р зогсоол",
        "longitude": 106.82741,
        "latitude": 47.96105
    },
    {
        "id": "000000108",
        "name": "Зүүн салааны 2-р зогсоол",
        "longitude": 106.82872,
        "latitude": 47.96417
    },
    {
        "id": "000000110",
        "name": "Зүүн салаа хуучин эцэс",
        "longitude": 106.82917,
        "latitude": 47.97133
    },
    {
        "id": "000000118",
        "name": "Улаан дэлгүүр",
        "longitude": 106.82866,
        "latitude": 47.97657
    },
    {
        "id": "000000120",
        "name": "Улаан худаг",
        "longitude": 106.82776,
        "latitude": 47.98407
    },
    {
        "id": "000000122",
        "name": "Одонт 30",
        "longitude": 106.82767,
        "latitude": 47.98986
    },
    {
        "id": "000000630",
        "name": "Одонт 44",
        "longitude": 106.82596,
        "latitude": 47.99545
    },
    {
        "id": "000000003",
        "name": "Зүүн салааны шинэ эцэс",
        "longitude": 106.82546,
        "latitude": 47.99864
    },
    {
        "id": "000000124",
        "name": "Одонт 44",
        "longitude": 106.82584,
        "latitude": 47.99474
    },
    {
        "id": "000000123",
        "name": "Одонт 30",
        "longitude": 106.82749,
        "latitude": 47.98898
    },
    {
        "id": "000000121",
        "name": "Улаан худаг",
        "longitude": 106.82764,
        "latitude": 47.98341
    },
    {
        "id": "000000119",
        "name": "Улаан дэлгүүр",
        "longitude": 106.82857,
        "latitude": 47.97585
    },
    {
        "id": "000000111",
        "name": "Зүүн салаа хуучин эцэс",
        "longitude": 106.82939,
        "latitude": 47.96992
    },
    {
        "id": "000000109",
        "name": "Зүүн салааны 2-р зогсоол",
        "longitude": 106.82839,
        "latitude": 47.96345
    },
    {
        "id": "000000107",
        "name": "Зүүн салааны 1-р зогсоол",
        "longitude": 106.82691,
        "latitude": 47.96052
    },
    {
        "id": "000000105",
        "name": "Баян хошуу хуучин эцэс",
        "longitude": 106.82592,
        "latitude": 47.95324
    },
    {
        "id": "000000103",
        "name": "7-р хороо",
        "longitude": 106.82491,
        "latitude": 47.94834
    },
    {
        "id": "000000101",
        "name": "Цэргийн анги",
        "longitude": 106.82122,
        "latitude": 47.94496
    },
    {
        "id": "000000649",
        "name": "Хилчин хотхон",
        "longitude": 106.81561,
        "latitude": 47.94194
    },
    {
        "id": "000000099",
        "name": "Шинэ давхар",
        "longitude": 106.81485,
        "latitude": 47.93648
    },
    {
        "id": "000000097",
        "name": "Өндөр настан",
        "longitude": 106.81611,
        "latitude": 47.93307
    },
    {
        "id": "000000056",
        "name": "Давхар дэлгүүр",
        "longitude": 106.81657,
        "latitude": 47.92835
    },
    {
        "id": "000000054",
        "name": "Сонгино хайрхан дүүрэг",
        "longitude": 106.8161,
        "latitude": 47.92403
    },
    {
        "id": "000000052",
        "name": "21-р хороолол",
        "longitude": 106.81679,
        "latitude": 47.9205
    },
    {
        "id": "000000050",
        "name": "Цахилгаан тээвэр",
        "longitude": 106.81808,
        "latitude": 47.91711
    },
    {
        "id": "000000048",
        "name": "Геологийн төв лаборатори",
        "longitude": 106.81868,
        "latitude": 47.91108
    },
    {
        "id": "000000401",
        "name": "Хавдар судлалын эмнэлэг",
        "longitude": 106.94377,
        "latitude": 47.91484
    },
    {
        "id": "000001270",
        "name": "Халдвартын эмнэлэг",
        "longitude": 106.94862,
        "latitude": 47.91267
    },
    {
        "id": "000000145",
        "name": "3-р эмнэлэг",
        "longitude": 106.85505,
        "latitude": 47.91468
    },
    {
        "id": "000000161",
        "name": "Гэмтлийн эмнэлэг",
        "longitude": 106.85921,
        "latitude": 47.92143
    },
    {
        "id": "000000176",
        "name": "Гандан",
        "longitude": 106.89389,
        "latitude": 47.92452
    },
    {
        "id": "000000256",
        "name": "Баянбүрд",
        "longitude": 106.90858,
        "latitude": 47.92824
    },
    {
        "id": "000000271",
        "name": "Өдрийн сонин",
        "longitude": 106.92001,
        "latitude": 47.92917
    },
    {
        "id": "000000305",
        "name": "100 айл",
        "longitude": 106.92837,
        "latitude": 47.92986
    },
    {
        "id": "000000417",
        "name": "Сансар ШТС",
        "longitude": 106.93897,
        "latitude": 47.92794
    },
    {
        "id": "000000416",
        "name": "Сансар ШТС",
        "longitude": 106.93765,
        "latitude": 47.92845
    },
    {
        "id": "000000306",
        "name": "Сүхбаатар дүүргийн эмнэлэг",
        "longitude": 106.92891,
        "latitude": 47.92999
    },
    {
        "id": "000000270",
        "name": "3-р сургууль",
        "longitude": 106.91833,
        "latitude": 47.92921
    },
    {
        "id": "000000257",
        "name": "Баянбүрд",
        "longitude": 106.90752,
        "latitude": 47.92833
    },
    {
        "id": "000000177",
        "name": "МҮИС",
        "longitude": 106.89413,
        "latitude": 47.92484
    },
    {
        "id": "000000162",
        "name": "Гэмтлийн эмнэлэг",
        "longitude": 106.85723,
        "latitude": 47.92134
    },
    {
        "id": "000001396",
        "name": "Дэнж",
        "longitude": 106.85477,
        "latitude": 47.9198
    },
    {
        "id": "000000425",
        "name": "Цайз зах",
        "longitude": 106.97032,
        "latitude": 47.92425
    },
    {
        "id": "000000423",
        "name": "1000 оюутны байр",
        "longitude": 106.96296,
        "latitude": 47.92382
    },
    {
        "id": "000000418",
        "name": "Их засаг Их Сургууль",
        "longitude": 106.95287,
        "latitude": 47.92364
    },
    {
        "id": "000000420",
        "name": "Цагдаагийн 801-р анги",
        "longitude": 106.94792,
        "latitude": 47.92443
    },
    {
        "id": "000000362",
        "name": "КТМС",
        "longitude": 106.94321,
        "latitude": 47.92656
    },
    {
        "id": "000000363",
        "name": "КТМС",
        "longitude": 106.94273,
        "latitude": 47.92654
    },
    {
        "id": "000000421",
        "name": "Сэлэнгэ зочид буудал",
        "longitude": 106.94834,
        "latitude": 47.92402
    },
    {
        "id": "000000419",
        "name": "Их засаг Их Сургууль",
        "longitude": 106.95452,
        "latitude": 47.92348
    },
    {
        "id": "000000422",
        "name": "1000 оюутны байр",
        "longitude": 106.96456,
        "latitude": 47.9238
    },
    {
        "id": "000000424",
        "name": "Цайз зах",
        "longitude": 106.97287,
        "latitude": 47.92408
    },
    {
        "id": "000000067",
        "name": "65-р дэлгүүр",
        "longitude": 106.79329,
        "latitude": 47.92013
    },
    {
        "id": "000000069",
        "name": "Толгойт Шөнийн дэлгүүр",
        "longitude": 106.7881,
        "latitude": 47.91983
    },
    {
        "id": "000000071",
        "name": "ТОЛГОЙТЫН ЭЦЭС",
        "longitude": 106.78174,
        "latitude": 47.91878
    },
    {
        "id": "000000072",
        "name": "Цэргийн хотхон",
        "longitude": 106.7824,
        "latitude": 47.91277
    },
    {
        "id": "000000024",
        "name": "Нефть хотхон",
        "longitude": 106.78749,
        "latitude": 47.91047
    },
    {
        "id": "000000022",
        "name": "10 буудал",
        "longitude": 106.79976,
        "latitude": 47.90955
    },
    {
        "id": "000001403",
        "name": "Богд ар хороолол",
        "longitude": 106.88384,
        "latitude": 47.91128
    },
    {
        "id": "000000671",
        "name": "Вокзал",
        "longitude": 106.8851,
        "latitude": 47.90904
    },
    {
        "id": "000000180",
        "name": "Барс худалдааны төв",
        "longitude": 106.89058,
        "latitude": 47.90896
    },
    {
        "id": "000001408",
        "name": "Монгол эм импекс",
        "longitude": 106.90107,
        "latitude": 47.90843
    },
    {
        "id": "000000284",
        "name": "Жигүүр гранд",
        "longitude": 106.90996,
        "latitude": 47.90814
    },
    {
        "id": "000000312",
        "name": "Соёлж худалдааны төв",
        "longitude": 106.92907,
        "latitude": 47.90809
    },
    {
        "id": "000001409",
        "name": "Говь хангай",
        "longitude": 106.9388,
        "latitude": 47.90795
    },
    {
        "id": "000000408",
        "name": "Нарантуул зах",
        "longitude": 106.95281,
        "latitude": 47.90782
    },
    {
        "id": "000000410",
        "name": "Ахмадын хороолол",
        "longitude": 106.96013,
        "latitude": 47.90784
    },
    {
        "id": "000000411",
        "name": "БЗД 13-р хороо",
        "longitude": 106.96828,
        "latitude": 47.90771
    },
    {
        "id": "000001161",
        "name": "Номин худалдааны төв",
        "longitude": 106.97534,
        "latitude": 47.91058
    },
    {
        "id": "000000381",
        "name": "Чулуун овоо",
        "longitude": 106.98419,
        "latitude": 47.91229
    },
    {
        "id": "000000383",
        "name": "Шөнийн дэлгүүр",
        "longitude": 106.98935,
        "latitude": 47.91256
    },
    {
        "id": "000000385",
        "name": "Хууль сахиулах их сургууль",
        "longitude": 106.99747,
        "latitude": 47.91299
    },
    {
        "id": "000000579",
        "name": "Ботаник",
        "longitude": 107.00088,
        "latitude": 47.91286
    },
    {
        "id": "000000386",
        "name": "Хууль сахиулах их сургууль",
        "longitude": 106.99567,
        "latitude": 47.9131
    },
    {
        "id": "000000384",
        "name": "Шөнийн дэлгүүр",
        "longitude": 106.98788,
        "latitude": 47.91269
    },
    {
        "id": "000000382",
        "name": "Чулуун овоо",
        "longitude": 106.98015,
        "latitude": 47.9123
    },
    {
        "id": "000001160",
        "name": "Номин худалдааны төв",
        "longitude": 106.97461,
        "latitude": 47.91042
    },
    {
        "id": "000000412",
        "name": "БЗД 13-р хороо",
        "longitude": 106.96653,
        "latitude": 47.90791
    },
    {
        "id": "000000409",
        "name": "Ахмадын хороолол",
        "longitude": 106.95922,
        "latitude": 47.90802
    },
    {
        "id": "000000407",
        "name": "Нарантуул зах",
        "longitude": 106.94687,
        "latitude": 47.90812
    },
    {
        "id": "000000651",
        "name": "Миний дэлгүүр",
        "longitude": 106.93575,
        "latitude": 47.90821
    },
    {
        "id": "000000311",
        "name": "Замын цагдаагийн газар",
        "longitude": 106.92855,
        "latitude": 47.90827
    },
    {
        "id": "000001503",
        "name": "ҮСА Хүрээлэн",
        "longitude": 106.92281,
        "latitude": 47.90833
    },
    {
        "id": "000000285",
        "name": "Жигүүр гранд",
        "longitude": 106.90869,
        "latitude": 47.90835
    },
    {
        "id": "000001407",
        "name": "Монгол эм импекс",
        "longitude": 106.90055,
        "latitude": 47.90867
    },
    {
        "id": "000000178",
        "name": "Вокзал",
        "longitude": 106.88463,
        "latitude": 47.90965
    },
    {
        "id": "000001404",
        "name": "Богд ар хороолол",
        "longitude": 106.88403,
        "latitude": 47.912
    },
    {
        "id": "000000061",
        "name": "ЧИНГИС СООСЭ Дээд Сургууль",
        "longitude": 106.81265,
        "latitude": 47.92149
    },
    {
        "id": "000001410",
        "name": "Толгойт-1",
        "longitude": 106.80475,
        "latitude": 47.92087
    },
    {
        "id": "000000065",
        "name": "Их наран 1",
        "longitude": 106.79879,
        "latitude": 47.92051
    },
    {
        "id": "000000066",
        "name": "65-р дэлгүүр",
        "longitude": 106.79534,
        "latitude": 47.92014
    },
    {
        "id": "000000505",
        "name": "НИСЭХ",
        "longitude": 106.7631,
        "latitude": 47.86531
    },
    {
        "id": "000000507",
        "name": "7-р сургууль",
        "longitude": 106.76186,
        "latitude": 47.86039
    },
    {
        "id": "000000509",
        "name": "Орон сууц",
        "longitude": 106.76211,
        "latitude": 47.8571
    },
    {
        "id": "000000503",
        "name": "Буянт ухаа-1",
        "longitude": 106.76553,
        "latitude": 47.85607
    },
    {
        "id": "000000512",
        "name": "Нисэхийн дэнж",
        "longitude": 106.77161,
        "latitude": 47.85614
    },
    {
        "id": "000000510",
        "name": "ИНЕГ",
        "longitude": 106.77835,
        "latitude": 47.85625
    },
    {
        "id": "000000138",
        "name": "Буянт-ухаа спорт цогцолбор",
        "longitude": 106.78332,
        "latitude": 47.85672
    },
    {
        "id": "000000716",
        "name": "118-р Сургууль",
        "longitude": 106.79335,
        "latitude": 47.85966
    },
    {
        "id": "000000519",
        "name": "Яармагийн 4-р буудал",
        "longitude": 106.80076,
        "latitude": 47.86191
    },
    {
        "id": "000000521",
        "name": "Эмнэлгийн буудал",
        "longitude": 106.81206,
        "latitude": 47.86537
    },
    {
        "id": "000000523",
        "name": "Яармагийн 3-р буудал",
        "longitude": 106.819,
        "latitude": 47.8674
    },
    {
        "id": "000000525",
        "name": "Яармагийн 2-р буудал",
        "longitude": 106.82656,
        "latitude": 47.86967
    },
    {
        "id": "000000529",
        "name": "Яармагийн 1-р буудал",
        "longitude": 106.83363,
        "latitude": 47.87181
    },
    {
        "id": "000001313",
        "name": "Англи сургууль",
        "longitude": 106.84509,
        "latitude": 47.87494
    },
    {
        "id": "000000718",
        "name": "Хүннү Их дэлгүүр",
        "longitude": 106.85233,
        "latitude": 47.87787
    },
    {
        "id": "000000527",
        "name": "Вива сити",
        "longitude": 106.85894,
        "latitude": 47.88135
    },
    {
        "id": "000000721",
        "name": "MSM",
        "longitude": 106.8725,
        "latitude": 47.89191
    },
    {
        "id": "000000534",
        "name": "Эрэл компани",
        "longitude": 106.88065,
        "latitude": 47.89461
    },
    {
        "id": "000000538",
        "name": "Таван богд компани",
        "longitude": 106.89097,
        "latitude": 47.8981
    },
    {
        "id": "000000540",
        "name": "Ажилчдын соёлын ордон",
        "longitude": 106.89815,
        "latitude": 47.89888
    },
    {
        "id": "000000542",
        "name": "Төв цэнгэлдэх хүрээлэн",
        "longitude": 106.91039,
        "latitude": 47.90169
    },
    {
        "id": "000000282",
        "name": "Төв номын сан",
        "longitude": 106.91556,
        "latitude": 47.91426
    },
    {
        "id": "000000286",
        "name": "МУБИС",
        "longitude": 106.92374,
        "latitude": 47.91858
    },
    {
        "id": "000000288",
        "name": "Монгол Улсын Их Сургууль",
        "longitude": 106.92022,
        "latitude": 47.92242
    },
    {
        "id": "000000203",
        "name": "Ард кино театр",
        "longitude": 106.9116,
        "latitude": 47.91784
    },
    {
        "id": "000000283",
        "name": "Баянгол зочид буудал",
        "longitude": 106.9151,
        "latitude": 47.91337
    },
    {
        "id": "000001337",
        "name": "120 Мянгат",
        "longitude": 106.90897,
        "latitude": 47.9001
    },
    {
        "id": "000000541",
        "name": "Ажилчдын соёлын ордон",
        "longitude": 106.89967,
        "latitude": 47.8991
    },
    {
        "id": "000000539",
        "name": "Таван богд компани",
        "longitude": 106.88842,
        "latitude": 47.89749
    },
    {
        "id": "000000535",
        "name": "Эрэл компани",
        "longitude": 106.87959,
        "latitude": 47.8945
    },
    {
        "id": "000000720",
        "name": "MSM",
        "longitude": 106.87129,
        "latitude": 47.89161
    },
    {
        "id": "000000528",
        "name": "Вива сити",
        "longitude": 106.85748,
        "latitude": 47.8809
    },
    {
        "id": "000000717",
        "name": "Хүннү Их дэлгүүр",
        "longitude": 106.85002,
        "latitude": 47.87708
    },
    {
        "id": "000001312",
        "name": "Англи сургууль",
        "longitude": 106.84402,
        "latitude": 47.87497
    },
    {
        "id": "000000530",
        "name": "Яармагийн 1-р буудал",
        "longitude": 106.8324,
        "latitude": 47.87178
    },
    {
        "id": "000000526",
        "name": "Яармагийн 2-р буудал",
        "longitude": 106.82501,
        "latitude": 47.86957
    },
    {
        "id": "000000524",
        "name": "Яармагийн 3-р буудал",
        "longitude": 106.8177,
        "latitude": 47.86737
    },
    {
        "id": "000000522",
        "name": "Эмнэлгийн буудал",
        "longitude": 106.8104,
        "latitude": 47.86514
    },
    {
        "id": "000000520",
        "name": "Яармагийн 4-р буудал",
        "longitude": 106.79911,
        "latitude": 47.86178
    },
    {
        "id": "000000715",
        "name": "118-р Сургууль",
        "longitude": 106.79185,
        "latitude": 47.85957
    },
    {
        "id": "000000632",
        "name": "Буянт-ухаа спорт цогцолбор",
        "longitude": 106.78234,
        "latitude": 47.8567
    },
    {
        "id": "000000511",
        "name": "ИНЕГ",
        "longitude": 106.77677,
        "latitude": 47.85641
    },
    {
        "id": "000000513",
        "name": "Нисэхийн дэнж",
        "longitude": 106.77038,
        "latitude": 47.85631
    },
    {
        "id": "000001182",
        "name": "Чингис Хаан ОУНБ",
        "longitude": 106.76307,
        "latitude": 47.85371
    },
    {
        "id": "000000508",
        "name": "Орон сууц",
        "longitude": 106.76215,
        "latitude": 47.85753
    },
    {
        "id": "000000506",
        "name": "7-р сургууль",
        "longitude": 106.76233,
        "latitude": 47.86147
    },
    {
        "id": "000001232",
        "name": "НИСЭХ",
        "longitude": 106.7634,
        "latitude": 47.86535
    },
    {
        "id": "000000192",
        "name": "Хайлаастын шинэ эцэс",
        "longitude": 106.8727,
        "latitude": 47.97269
    },
    {
        "id": "000000191",
        "name": "Хайлааст завсар 3",
        "longitude": 106.88026,
        "latitude": 47.96943
    },
    {
        "id": "000000219",
        "name": "Хайлааст завсар 2",
        "longitude": 106.88516,
        "latitude": 47.96724
    },
    {
        "id": "000000659",
        "name": "Хайлааст завсар 1",
        "longitude": 106.88957,
        "latitude": 47.9651
    },
    {
        "id": "000000221",
        "name": "Хайлааст хуучин эцэс",
        "longitude": 106.89677,
        "latitude": 47.96193
    },
    {
        "id": "000000218",
        "name": "49-р сургууль",
        "longitude": 106.90174,
        "latitude": 47.95699
    },
    {
        "id": "000000223",
        "name": "Хайлааст-Давхрын буудал",
        "longitude": 106.90669,
        "latitude": 47.95309
    },
    {
        "id": "000000269",
        "name": "17-р сургууль",
        "longitude": 106.91389,
        "latitude": 47.94768
    },
    {
        "id": "000000267",
        "name": "32-ын тойрог",
        "longitude": 106.91448,
        "latitude": 47.94317
    },
    {
        "id": "000000302",
        "name": "9-р дэлгүүр",
        "longitude": 106.92088,
        "latitude": 47.9377
    },
    {
        "id": "000000303",
        "name": "Жоби дэлгүүр",
        "longitude": 106.92722,
        "latitude": 47.93125
    },
    {
        "id": "000000291",
        "name": "11-р хороолол",
        "longitude": 106.9269,
        "latitude": 47.92688
    },
    {
        "id": "000000289",
        "name": "Хөгжим бүжгийн коллеж",
        "longitude": 106.92642,
        "latitude": 47.92307
    },
    {
        "id": "000000287",
        "name": "МУБИС",
        "longitude": 106.9233,
        "latitude": 47.91972
    },
    {
        "id": "000000582",
        "name": "Цэцэг төв",
        "longitude": 106.9119,
        "latitude": 47.91834
    },
    {
        "id": "000000200",
        "name": "Хүнсний 1-р дэлгүүр",
        "longitude": 106.91092,
        "latitude": 47.92299
    },
    {
        "id": "000000293",
        "name": "4-р дэлгүүр",
        "longitude": 106.91754,
        "latitude": 47.92769
    },
    {
        "id": "000000299",
        "name": "Ногоон нуурын буудал",
        "longitude": 106.91593,
        "latitude": 47.93615
    },
    {
        "id": "000000266",
        "name": "32-ын тойрог",
        "longitude": 106.91446,
        "latitude": 47.94484
    },
    {
        "id": "000000224",
        "name": "Гялгар зах",
        "longitude": 106.91076,
        "latitude": 47.95047
    },
    {
        "id": "000000222",
        "name": "Хайлааст-Давхрын буудал",
        "longitude": 106.90753,
        "latitude": 47.95262
    },
    {
        "id": "000000217",
        "name": "49-р сургууль",
        "longitude": 106.90243,
        "latitude": 47.9566
    },
    {
        "id": "000000220",
        "name": "Хайлааст хуучин эцэс",
        "longitude": 106.89717,
        "latitude": 47.9615
    },
    {
        "id": "000000658",
        "name": "Хайлааст завсар 1",
        "longitude": 106.88891,
        "latitude": 47.9655
    },
    {
        "id": "000000657",
        "name": "Хайлааст завсар 2",
        "longitude": 106.88652,
        "latitude": 47.96681
    },
    {
        "id": "000000190",
        "name": "Хайлааст завсар 3",
        "longitude": 106.8796,
        "latitude": 47.96985
    },
    {
        "id": "000000656",
        "name": "Хайлааст шинэ эцэс",
        "longitude": 106.87296,
        "latitude": 47.97279
    },
    {
        "id": "000000557",
        "name": "Механик инженер сурууль",
        "longitude": 106.89326,
        "latitude": 47.90071
    },
    {
        "id": "000000629",
        "name": "Алтай хотхон",
        "longitude": 106.89343,
        "latitude": 47.90412
    },
    {
        "id": "000000179",
        "name": "Тээврийн товчоо",
        "longitude": 106.89483,
        "latitude": 47.9116
    },
    {
        "id": "000000248",
        "name": "Элба дэлгүүр",
        "longitude": 106.89559,
        "latitude": 47.91639
    },
    {
        "id": "000000250",
        "name": "Бөмбөгөр худалдааны төв",
        "longitude": 106.89947,
        "latitude": 47.92033
    },
    {
        "id": "000000259",
        "name": "Чингэлтэй дүүрэг",
        "longitude": 106.907,
        "latitude": 47.92193
    },
    {
        "id": "000000294",
        "name": "4-р дэлгүүр",
        "longitude": 106.91744,
        "latitude": 47.92716
    },
    {
        "id": "000000201",
        "name": "Хүнсний 1-р дэлгүүр",
        "longitude": 106.911,
        "latitude": 47.92388
    },
    {
        "id": "000000258",
        "name": "Тэнгис кино театр",
        "longitude": 106.90448,
        "latitude": 47.92203
    },
    {
        "id": "000000251",
        "name": "Бөмбөгөр худалдааны төв",
        "longitude": 106.89888,
        "latitude": 47.9197
    },
    {
        "id": "000000804",
        "name": "МҮЭСТО",
        "longitude": 106.89456,
        "latitude": 47.91413
    },
    {
        "id": "000000628",
        "name": "Алтай хотхон",
        "longitude": 106.89291,
        "latitude": 47.90375
    },
    {
        "id": "000000556",
        "name": "Механик инженер сурууль",
        "longitude": 106.893,
        "latitude": 47.90016
    },
    {
        "id": "000000504",
        "name": "Буянт ухаа-1",
        "longitude": 106.76394,
        "latitude": 47.85612
    },
    {
        "id": "000001159",
        "name": "БЗД 21-р хороо",
        "longitude": 106.94418,
        "latitude": 47.95288
    },
    {
        "id": "000000364",
        "name": "21-р хороо завсар",
        "longitude": 106.93924,
        "latitude": 47.95021
    },
    {
        "id": "000000487",
        "name": "Дарь эх хуучин эцэс",
        "longitude": 106.93181,
        "latitude": 47.94084
    },
    {
        "id": "000000483",
        "name": "Дарь эх дунд буудал",
        "longitude": 106.93181,
        "latitude": 47.93523
    },
    {
        "id": "000001431",
        "name": "Хас зах",
        "longitude": 106.93389,
        "latitude": 47.93132
    },
    {
        "id": "000000413",
        "name": "Сансарын үйлчилгээний төв",
        "longitude": 106.94195,
        "latitude": 47.92355
    },
    {
        "id": "000000406",
        "name": "Улаанбаатар их сургууль",
        "longitude": 106.94343,
        "latitude": 47.91104
    },
    {
        "id": "000001445",
        "name": "Их монгол хороолол",
        "longitude": 106.94323,
        "latitude": 47.90647
    },
    {
        "id": "000000773",
        "name": "Сүмбэр Орд",
        "longitude": 106.93836,
        "latitude": 47.90484
    },
    {
        "id": "000000771",
        "name": "Баянмонгол хороолол",
        "longitude": 106.93121,
        "latitude": 47.90455
    },
    {
        "id": "000000546",
        "name": "Жаргалан хотхон",
        "longitude": 106.92353,
        "latitude": 47.90456
    },
    {
        "id": "000000544",
        "name": "Төв цэнгэлдэх хүрээлэн",
        "longitude": 106.91685,
        "latitude": 47.90435
    },
    {
        "id": "000000532",
        "name": "Барилга угсралт компани",
        "longitude": 106.87335,
        "latitude": 47.89555
    },
    {
        "id": "000001464",
        "name": "Дулааны цахилгаан станц 3",
        "longitude": 106.86759,
        "latitude": 47.89925
    },
    {
        "id": "000000531",
        "name": "Барилга угсралт компани",
        "longitude": 106.87403,
        "latitude": 47.89494
    },
    {
        "id": "000000545",
        "name": "Төв цэнгэлдэх хүрээлэн",
        "longitude": 106.91763,
        "latitude": 47.90412
    },
    {
        "id": "000000547",
        "name": "Жаргалан хотхон",
        "longitude": 106.92472,
        "latitude": 47.9044
    },
    {
        "id": "000000772",
        "name": "Баянмонгол хороолол",
        "longitude": 106.93309,
        "latitude": 47.90444
    },
    {
        "id": "000000774",
        "name": "Сүмбэр Орд",
        "longitude": 106.93957,
        "latitude": 47.9047
    },
    {
        "id": "000001446",
        "name": "Их монгол хороолол",
        "longitude": 106.9436,
        "latitude": 47.90593
    },
    {
        "id": "000000405",
        "name": "Шөнийн зах",
        "longitude": 106.9436,
        "latitude": 47.90981
    },
    {
        "id": "000000414",
        "name": "Сансарын үйлчилгээний төв",
        "longitude": 106.94168,
        "latitude": 47.92571
    },
    {
        "id": "000001430",
        "name": "Хас зах",
        "longitude": 106.93379,
        "latitude": 47.93192
    },
    {
        "id": "000000482",
        "name": "Дарь эх дунд буудал",
        "longitude": 106.93179,
        "latitude": 47.93569
    },
    {
        "id": "000000486",
        "name": "Дарь эх хуучин эцэс",
        "longitude": 106.93222,
        "latitude": 47.94166
    },
    {
        "id": "000001156",
        "name": "21-р хороо завсар",
        "longitude": 106.93984,
        "latitude": 47.95028
    },
    {
        "id": "000000480",
        "name": "БЗД 21-р хороо",
        "longitude": 106.94434,
        "latitude": 47.95296
    },
    {
        "id": "000000465",
        "name": "ХУЖИРБУЛАНГИЙН ЭЦЭС",
        "longitude": 107.07623,
        "latitude": 47.92443
    },
    {
        "id": "000000464",
        "name": "Хужирбулан завсар 2",
        "longitude": 107.07721,
        "latitude": 47.92097
    },
    {
        "id": "000000452",
        "name": "11-р цэргийн анги",
        "longitude": 107.07575,
        "latitude": 47.91573
    },
    {
        "id": "000001384",
        "name": "120-р сургууль",
        "longitude": 107.07087,
        "latitude": 47.91566
    },
    {
        "id": "000000450",
        "name": "Гачуурт завсар",
        "longitude": 107.06772,
        "latitude": 47.91564
    },
    {
        "id": "000001382",
        "name": "15-н зогсоол",
        "longitude": 107.0621,
        "latitude": 47.91554
    },
    {
        "id": "000000449",
        "name": "Хар хошуу",
        "longitude": 107.05592,
        "latitude": 47.91546
    },
    {
        "id": "000000447",
        "name": "Мангай",
        "longitude": 107.04338,
        "latitude": 47.9117
    },
    {
        "id": "000000396",
        "name": "Шар дэлгүүр",
        "longitude": 107.03504,
        "latitude": 47.90765
    },
    {
        "id": "000000783",
        "name": "Пост",
        "longitude": 107.03456,
        "latitude": 47.90555
    },
    {
        "id": "000000394",
        "name": "Хангамж",
        "longitude": 107.024,
        "latitude": 47.90386
    },
    {
        "id": "000000392",
        "name": "Амгалан",
        "longitude": 107.01424,
        "latitude": 47.90677
    },
    {
        "id": "000000390",
        "name": "12-ын буудал",
        "longitude": 107.00749,
        "latitude": 47.90918
    },
    {
        "id": "000000388",
        "name": "Ботаник",
        "longitude": 107.00079,
        "latitude": 47.91263
    },
    {
        "id": "000001402",
        "name": "Икс апартмент",
        "longitude": 106.97501,
        "latitude": 47.91446
    },
    {
        "id": "000001401",
        "name": "Эм Ай Ю дээд сургууль",
        "longitude": 106.97512,
        "latitude": 47.9141
    },
    {
        "id": "000000387",
        "name": "БОТАНИКИЙН ЭЦЭС",
        "longitude": 107.00181,
        "latitude": 47.91195
    },
    {
        "id": "000000389",
        "name": "Төмөр замын засварын төв",
        "longitude": 107.00833,
        "latitude": 47.90859
    },
    {
        "id": "000000391",
        "name": "Амгалан",
        "longitude": 107.0146,
        "latitude": 47.90654
    },
    {
        "id": "000000393",
        "name": "Хангамж",
        "longitude": 107.02555,
        "latitude": 47.90329
    },
    {
        "id": "000000784",
        "name": "Пост",
        "longitude": 107.03476,
        "latitude": 47.90554
    },
    {
        "id": "000000395",
        "name": "Шар дэлгүүр",
        "longitude": 107.03696,
        "latitude": 47.90847
    },
    {
        "id": "000000446",
        "name": "Мангай",
        "longitude": 107.04514,
        "latitude": 47.9124
    },
    {
        "id": "000000448",
        "name": "Хар хошуу",
        "longitude": 107.05702,
        "latitude": 47.91532
    },
    {
        "id": "000001383",
        "name": "15-н зогсоол",
        "longitude": 107.06271,
        "latitude": 47.9154
    },
    {
        "id": "000000451",
        "name": "Гачуурт завсар",
        "longitude": 107.06848,
        "latitude": 47.91551
    },
    {
        "id": "000001385",
        "name": "120-р сургууль",
        "longitude": 107.07139,
        "latitude": 47.91554
    },
    {
        "id": "000000453",
        "name": "11-р цэргийн анги",
        "longitude": 107.07678,
        "latitude": 47.91564
    },
    {
        "id": "000000463",
        "name": "Хужирбулан завсар 1",
        "longitude": 107.07862,
        "latitude": 47.91643
    },
    {
        "id": "000000454",
        "name": "Хужирбулан завсар 2",
        "longitude": 107.07724,
        "latitude": 47.92177
    },
    {
        "id": "000001235",
        "name": "ХУЖИРБУЛАНГИЙН ЭЦЭС",
        "longitude": 107.07648,
        "latitude": 47.92442
    },
    {
        "id": "000000472",
        "name": "УРГАХ НАРАН ХОРООЛОЛ",
        "longitude": 107.11394,
        "latitude": 47.87351
    },
    {
        "id": "000000470",
        "name": "Ургах наран хороолол",
        "longitude": 107.10942,
        "latitude": 47.87157
    },
    {
        "id": "000000878",
        "name": "Усан сан",
        "longitude": 107.10477,
        "latitude": 47.87519
    },
    {
        "id": "000000468",
        "name": "Ногооны зоорь",
        "longitude": 107.09666,
        "latitude": 47.88047
    },
    {
        "id": "000000673",
        "name": "Налайх МТ ШТС",
        "longitude": 107.08664,
        "latitude": 47.88473
    },
    {
        "id": "000000675",
        "name": "Хөх Тэнгэр хотхон",
        "longitude": 107.0806,
        "latitude": 47.88678
    },
    {
        "id": "000000467",
        "name": "Баянзүрх ШБ товчоо",
        "longitude": 107.07162,
        "latitude": 47.88798
    },
    {
        "id": "000000466",
        "name": "Баянзүрх ШБ товчоо",
        "longitude": 107.07026,
        "latitude": 47.88795
    },
    {
        "id": "000000676",
        "name": "Хөх Тэнгэр хотхон",
        "longitude": 107.08067,
        "latitude": 47.88661
    },
    {
        "id": "000000674",
        "name": "Налайх МТ ШТС",
        "longitude": 107.08778,
        "latitude": 47.88412
    },
    {
        "id": "000000469",
        "name": "Ногооны зоорь",
        "longitude": 107.0972,
        "latitude": 47.87999
    },
    {
        "id": "000000877",
        "name": "Усан сан",
        "longitude": 107.10514,
        "latitude": 47.87471
    },
    {
        "id": "000000471",
        "name": "Ургах наран хороолол",
        "longitude": 107.10988,
        "latitude": 47.87102
    },
    {
        "id": "000001425",
        "name": "Чулуутын гүүр",
        "longitude": 107.12044,
        "latitude": 47.86363
    },
    {
        "id": "000001424",
        "name": "Чулуутын гүүр",
        "longitude": 107.12013,
        "latitude": 47.86407
    },
    {
        "id": "000001236",
        "name": "УРГАХ НАРАН ХОРООЛОЛ",
        "longitude": 107.11409,
        "latitude": 47.87358
    },
    {
        "id": "000000036",
        "name": "Тахилтын эцэс",
        "longitude": 106.68255,
        "latitude": 47.93571
    },
    {
        "id": "000000820",
        "name": "Тахилт 5",
        "longitude": 106.687,
        "latitude": 47.93055
    },
    {
        "id": "000000822",
        "name": "Тахилт 4",
        "longitude": 106.69163,
        "latitude": 47.92506
    },
    {
        "id": "000000824",
        "name": "Тахилт 3",
        "longitude": 106.69599,
        "latitude": 47.92105
    },
    {
        "id": "000000826",
        "name": "Тахилт 2",
        "longitude": 106.70026,
        "latitude": 47.91821
    },
    {
        "id": "000000828",
        "name": "Тахилт 1",
        "longitude": 106.70607,
        "latitude": 47.91432
    },
    {
        "id": "000000830",
        "name": "Тахилт давхар",
        "longitude": 106.70972,
        "latitude": 47.91151
    },
    {
        "id": "000000832",
        "name": "Тахилт зам анги",
        "longitude": 106.71341,
        "latitude": 47.90865
    },
    {
        "id": "000000834",
        "name": "Тахилт задгай",
        "longitude": 106.71969,
        "latitude": 47.90679
    },
    {
        "id": "000000836",
        "name": "Ногоон хашаа",
        "longitude": 106.72514,
        "latitude": 47.90581
    },
    {
        "id": "000000838",
        "name": "Тахилт худаг",
        "longitude": 106.73182,
        "latitude": 47.90729
    },
    {
        "id": "000000032",
        "name": "Тахилт жаргалант",
        "longitude": 106.73532,
        "latitude": 47.91047
    },
    {
        "id": "000000841",
        "name": "СХД 22-р хороо",
        "longitude": 106.73975,
        "latitude": 47.91178
    },
    {
        "id": "000000847",
        "name": "Номгон",
        "longitude": 106.74568,
        "latitude": 47.91296
    },
    {
        "id": "000000843",
        "name": "Тойрог",
        "longitude": 106.75069,
        "latitude": 47.91509
    },
    {
        "id": "000000031",
        "name": "Орбит хуучин эцэс",
        "longitude": 106.75429,
        "latitude": 47.91228
    },
    {
        "id": "000000029",
        "name": "Хүнс трейд",
        "longitude": 106.76296,
        "latitude": 47.90747
    },
    {
        "id": "000000892",
        "name": "Зоорь",
        "longitude": 106.76908,
        "latitude": 47.90799
    },
    {
        "id": "000000027",
        "name": "Цэргийн хотхон",
        "longitude": 106.77972,
        "latitude": 47.91038
    },
    {
        "id": "000000021",
        "name": "5 Шар",
        "longitude": 106.81352,
        "latitude": 47.90991
    },
    {
        "id": "000000023",
        "name": "10 буудал",
        "longitude": 106.79825,
        "latitude": 47.9097
    },
    {
        "id": "000000025",
        "name": "Нефть хотхон",
        "longitude": 106.7865,
        "latitude": 47.91062
    },
    {
        "id": "000000026",
        "name": "Цэргийн хотхон",
        "longitude": 106.77902,
        "latitude": 47.91043
    },
    {
        "id": "000000893",
        "name": "Зоорь",
        "longitude": 106.76932,
        "latitude": 47.9082
    },
    {
        "id": "000000028",
        "name": "Хүнс трейд",
        "longitude": 106.76269,
        "latitude": 47.90798
    },
    {
        "id": "000000030",
        "name": "Орбит хуучин эцэс",
        "longitude": 106.75511,
        "latitude": 47.91182
    },
    {
        "id": "000000842",
        "name": "Тойрог",
        "longitude": 106.74979,
        "latitude": 47.91473
    },
    {
        "id": "000000844",
        "name": "Номгон",
        "longitude": 106.74437,
        "latitude": 47.91274
    },
    {
        "id": "000000840",
        "name": "СХД 22-р хороо",
        "longitude": 106.73872,
        "latitude": 47.91172
    },
    {
        "id": "000000839",
        "name": "Тахилт жаргалант",
        "longitude": 106.73475,
        "latitude": 47.90999
    },
    {
        "id": "000000837",
        "name": "Тахилт худаг",
        "longitude": 106.73099,
        "latitude": 47.90709
    },
    {
        "id": "000000835",
        "name": "Ногоон хашаа",
        "longitude": 106.7241,
        "latitude": 47.90608
    },
    {
        "id": "000000833",
        "name": "Тахилт задгай",
        "longitude": 106.7187,
        "latitude": 47.9071
    },
    {
        "id": "000000831",
        "name": "Тахилт зам анги",
        "longitude": 106.71284,
        "latitude": 47.90927
    },
    {
        "id": "000000829",
        "name": "Тахилт давхар",
        "longitude": 106.70929,
        "latitude": 47.91207
    },
    {
        "id": "000000827",
        "name": "Тахилт 1",
        "longitude": 106.70537,
        "latitude": 47.91496
    },
    {
        "id": "000000825",
        "name": "Тахилт 2",
        "longitude": 106.69965,
        "latitude": 47.91881
    },
    {
        "id": "000000823",
        "name": "Тахилт 3",
        "longitude": 106.69531,
        "latitude": 47.92174
    },
    {
        "id": "000000821",
        "name": "Тахилт 4",
        "longitude": 106.69118,
        "latitude": 47.92576
    },
    {
        "id": "000001564",
        "name": "Тахилт март",
        "longitude": 106.68828,
        "latitude": 47.92918
    },
    {
        "id": "000000819",
        "name": "Тахилт 5",
        "longitude": 106.68658,
        "latitude": 47.9312
    },
    {
        "id": "000001237",
        "name": "Тахилтын эцэс",
        "longitude": 106.68274,
        "latitude": 47.93593
    },
    {
        "id": "000000090",
        "name": "НАРАНГИЙН ГОЛ",
        "longitude": 106.76573,
        "latitude": 47.93446
    },
    {
        "id": "000000089",
        "name": "Нарангийн гол Дунд буудал",
        "longitude": 106.76512,
        "latitude": 47.93055
    },
    {
        "id": "000000087",
        "name": "Нарангийн гол хуучин эцэс",
        "longitude": 106.76513,
        "latitude": 47.92807
    },
    {
        "id": "000000085",
        "name": "Гараашийн буудал",
        "longitude": 106.76532,
        "latitude": 47.92398
    },
    {
        "id": "000000083",
        "name": "Цэнхэр дэлгүүр",
        "longitude": 106.765,
        "latitude": 47.92283
    },
    {
        "id": "000000081",
        "name": "СХД 1-р хороо",
        "longitude": 106.76613,
        "latitude": 47.92015
    },
    {
        "id": "000000079",
        "name": "Гүүрний буудал",
        "longitude": 106.77057,
        "latitude": 47.91754
    },
    {
        "id": "000000077",
        "name": "Өрхийн эмнэлэг",
        "longitude": 106.77343,
        "latitude": 47.91571
    },
    {
        "id": "000000075",
        "name": "42-р сургууль",
        "longitude": 106.7764,
        "latitude": 47.91371
    },
    {
        "id": "000000074",
        "name": "42-р сургууль",
        "longitude": 106.7755,
        "latitude": 47.91403
    },
    {
        "id": "000000076",
        "name": "Өрхийн эмнэлэг",
        "longitude": 106.77306,
        "latitude": 47.91619
    },
    {
        "id": "000000078",
        "name": "Гүүрний буудал",
        "longitude": 106.7676,
        "latitude": 47.9186
    },
    {
        "id": "000000080",
        "name": "СХД 1-р хороо",
        "longitude": 106.76591,
        "latitude": 47.92089
    },
    {
        "id": "000000082",
        "name": "Цэнхэр дэлгүүр",
        "longitude": 106.76554,
        "latitude": 47.92272
    },
    {
        "id": "000000084",
        "name": "Гараашийн буудал",
        "longitude": 106.7656,
        "latitude": 47.92464
    },
    {
        "id": "000000086",
        "name": "Нарангийн гол хуучин эцэс",
        "longitude": 106.76549,
        "latitude": 47.9287
    },
    {
        "id": "000000088",
        "name": "Нарангийн гол Дунд буудал",
        "longitude": 106.7654,
        "latitude": 47.93132
    },
    {
        "id": "000001338",
        "name": "НАРАНГИЙН ГОЛ",
        "longitude": 106.76592,
        "latitude": 47.93435
    },
    {
        "id": "000001285",
        "name": "Яармагийн дэнж-1",
        "longitude": 106.78815,
        "latitude": 47.86223
    },
    {
        "id": "000000514",
        "name": "Яармагийн дэнж",
        "longitude": 106.78665,
        "latitude": 47.86684
    },
    {
        "id": "000001287",
        "name": "Элиганс хороолол",
        "longitude": 106.78446,
        "latitude": 47.87232
    },
    {
        "id": "000001289",
        "name": "Сонсголон завсар",
        "longitude": 106.78464,
        "latitude": 47.88014
    },
    {
        "id": "000001291",
        "name": "Бетон зуурмаг",
        "longitude": 106.78512,
        "latitude": 47.88411
    },
    {
        "id": "000000046",
        "name": "Карьер",
        "longitude": 106.78533,
        "latitude": 47.88821
    },
    {
        "id": "000001293",
        "name": "Сонсголон ШТС",
        "longitude": 106.7855,
        "latitude": 47.89273
    },
    {
        "id": "000000044",
        "name": "Дэвшил компани",
        "longitude": 106.7857,
        "latitude": 47.8986
    },
    {
        "id": "000000042",
        "name": "Мах маркет",
        "longitude": 106.78585,
        "latitude": 47.90198
    },
    {
        "id": "000000040",
        "name": "Монос эмийн үйлдвэр",
        "longitude": 106.78602,
        "latitude": 47.90607
    },
    {
        "id": "000000038",
        "name": "19-р сургууль",
        "longitude": 106.79295,
        "latitude": 47.90797
    },
    {
        "id": "000000037",
        "name": "Энхжин худалдааны төв",
        "longitude": 106.79536,
        "latitude": 47.90829
    },
    {
        "id": "000000039",
        "name": "Монос эмийн үйлдвэр",
        "longitude": 106.78571,
        "latitude": 47.90534
    },
    {
        "id": "000000041",
        "name": "Автобус 2",
        "longitude": 106.7855,
        "latitude": 47.90045
    },
    {
        "id": "000000043",
        "name": "Дэвшил компани",
        "longitude": 106.78536,
        "latitude": 47.89663
    },
    {
        "id": "000001292",
        "name": "Сонсголон ШТС",
        "longitude": 106.78518,
        "latitude": 47.89216
    },
    {
        "id": "000000045",
        "name": "Монгол цах/утас компани",
        "longitude": 106.78497,
        "latitude": 47.88685
    },
    {
        "id": "000001290",
        "name": "Бетон зуурмаг",
        "longitude": 106.78487,
        "latitude": 47.88347
    },
    {
        "id": "000001288",
        "name": "Сонсголон завсар",
        "longitude": 106.7843,
        "latitude": 47.87944
    },
    {
        "id": "000001286",
        "name": "Элиганс хороолол",
        "longitude": 106.78452,
        "latitude": 47.87051
    },
    {
        "id": "000000515",
        "name": "Яармагийн дэнж",
        "longitude": 106.78721,
        "latitude": 47.86553
    },
    {
        "id": "000001284",
        "name": "Яармагийн дэнж",
        "longitude": 106.78772,
        "latitude": 47.86137
    },
    {
        "id": "000000130",
        "name": "БАРУУН САЛААНЫ ЭЦЭС",
        "longitude": 106.80177,
        "latitude": 47.98751
    },
    {
        "id": "000001280",
        "name": "Баруун салааны 6-р буудал",
        "longitude": 106.80332,
        "latitude": 47.9806
    },
    {
        "id": "000000132",
        "name": "Баруун салааны 5-р буудал",
        "longitude": 106.80406,
        "latitude": 47.97658
    },
    {
        "id": "000001610",
        "name": "Баруун салааны завсар",
        "longitude": 106.80488,
        "latitude": 47.9743
    },
    {
        "id": "000000128",
        "name": "Баруун салааны 4-р буудал",
        "longitude": 106.80734,
        "latitude": 47.97022
    },
    {
        "id": "000001278",
        "name": "Баруун салааны 3-р буудал",
        "longitude": 106.81171,
        "latitude": 47.96741
    },
    {
        "id": "000000654",
        "name": "Баруун салааны 2-р буудал",
        "longitude": 106.81687,
        "latitude": 47.96276
    },
    {
        "id": "000000126",
        "name": "Баруун салааны 1-р буудал",
        "longitude": 106.8206,
        "latitude": 47.95971
    },
    {
        "id": "000000749",
        "name": "Шар тал дэлгүүр",
        "longitude": 106.81131,
        "latitude": 47.93484
    },
    {
        "id": "000000751",
        "name": "Хуруувчхан дэлгүүр",
        "longitude": 106.81133,
        "latitude": 47.93159
    },
    {
        "id": "000000753",
        "name": "Өнхрүүш компани",
        "longitude": 106.80987,
        "latitude": 47.92799
    },
    {
        "id": "000000062",
        "name": "Авто сургууль",
        "longitude": 106.81447,
        "latitude": 47.9214
    },
    {
        "id": "000000125",
        "name": "Баруун салааны 1-р буудал",
        "longitude": 106.8219,
        "latitude": 47.9592
    },
    {
        "id": "000000655",
        "name": "Баруун салааны 2-р буудал",
        "longitude": 106.8166,
        "latitude": 47.96349
    },
    {
        "id": "000001279",
        "name": "Баруун салааны 3-р буудал",
        "longitude": 106.81101,
        "latitude": 47.96797
    },
    {
        "id": "000000127",
        "name": "Баруун салааны 4-р буудал",
        "longitude": 106.80675,
        "latitude": 47.97083
    },
    {
        "id": "000001609",
        "name": "Баруун салааны завсар",
        "longitude": 106.80496,
        "latitude": 47.97479
    },
    {
        "id": "000000131",
        "name": "Баруун салааны 5-р буудал",
        "longitude": 106.80349,
        "latitude": 47.97799
    },
    {
        "id": "000001281",
        "name": "Баруун салааны 6-р буудал",
        "longitude": 106.80347,
        "latitude": 47.98167
    },
    {
        "id": "000001239",
        "name": "БАРУУН САЛААНЫ ЭЦЭС",
        "longitude": 106.8021,
        "latitude": 47.98776
    },
    {
        "id": "000000252",
        "name": "Баянбогд төв",
        "longitude": 106.90193,
        "latitude": 47.92514
    },
    {
        "id": "000000254",
        "name": "6-р Хороолол",
        "longitude": 106.90413,
        "latitude": 47.92724
    },
    {
        "id": "000000606",
        "name": "Сансар ШТС",
        "longitude": 106.93889,
        "latitude": 47.92787
    },
    {
        "id": "000000255",
        "name": "6-р Хороолол",
        "longitude": 106.90336,
        "latitude": 47.92698
    },
    {
        "id": "000000253",
        "name": "Нарны титэм",
        "longitude": 106.90109,
        "latitude": 47.92344
    },
    {
        "id": "000000605",
        "name": "Сансар ШТС",
        "longitude": 106.93781,
        "latitude": 47.92852
    },
    {
        "id": "000000636",
        "name": "Дулааны цахилгаан станц 3",
        "longitude": 106.86723,
        "latitude": 47.89963
    },
    {
        "id": "000000724",
        "name": "Олимп хотхон",
        "longitude": 106.86052,
        "latitude": 47.89865
    },
    {
        "id": "000000560",
        "name": "Мотобуудлага спорт төв",
        "longitude": 106.85715,
        "latitude": 47.9017
    },
    {
        "id": "000000635",
        "name": "ТЭХ барилгын зах",
        "longitude": 106.85564,
        "latitude": 47.90468
    },
    {
        "id": "000000187",
        "name": "13-р сургууль",
        "longitude": 106.87325,
        "latitude": 47.92479
    },
    {
        "id": "000000755",
        "name": "Бичлийн аркны буудал",
        "longitude": 106.87982,
        "latitude": 47.92499
    },
    {
        "id": "000000708",
        "name": "28-р Сургууль",
        "longitude": 106.88442,
        "latitude": 47.9258
    },
    {
        "id": "000000533",
        "name": "Дулааны цахилгаан станц 3",
        "longitude": 106.8677,
        "latitude": 47.89923
    },
    {
        "id": "000000169",
        "name": "Ахуй Үйлчилгээний ордон",
        "longitude": 106.889,
        "latitude": 47.9242
    },
    {
        "id": "000000170",
        "name": "28-р сургууль",
        "longitude": 106.88388,
        "latitude": 47.92584
    },
    {
        "id": "000000171",
        "name": "Бичлийн аркны буудал",
        "longitude": 106.87889,
        "latitude": 47.92511
    },
    {
        "id": "000000188",
        "name": "13-р сургууль",
        "longitude": 106.87275,
        "latitude": 47.92495
    },
    {
        "id": "000000634",
        "name": "ТЭХ барилгын зах",
        "longitude": 106.85542,
        "latitude": 47.90452
    },
    {
        "id": "000000561",
        "name": "Мотобуудлага спорт төв",
        "longitude": 106.8574,
        "latitude": 47.90069
    },
    {
        "id": "000000725",
        "name": "Олимп хотхон",
        "longitude": 106.86149,
        "latitude": 47.89885
    },
    {
        "id": "000000202",
        "name": "Цэцэг төв",
        "longitude": 106.91187,
        "latitude": 47.91838
    },
    {
        "id": "000000607",
        "name": "МҮИС",
        "longitude": 106.89422,
        "latitude": 47.92498
    },
    {
        "id": "000000770",
        "name": "Цагаан давааны задгай",
        "longitude": 106.97531,
        "latitude": 47.94663
    },
    {
        "id": "000001544",
        "name": "Монелийн 43",
        "longitude": 106.97064,
        "latitude": 47.94697
    },
    {
        "id": "000000441",
        "name": "Монелийн 38",
        "longitude": 106.96946,
        "latitude": 47.94298
    },
    {
        "id": "000000762",
        "name": "430-р худаг",
        "longitude": 106.96883,
        "latitude": 47.94043
    },
    {
        "id": "000000764",
        "name": "Цэлмэг хүнс дэлгүүр",
        "longitude": 106.96724,
        "latitude": 47.93749
    },
    {
        "id": "000000766",
        "name": "Фунтик",
        "longitude": 106.9652,
        "latitude": 47.93303
    },
    {
        "id": "000000768",
        "name": "Капитрон банк",
        "longitude": 106.9658,
        "latitude": 47.92883
    },
    {
        "id": "000000304",
        "name": "ИБ Мэдээллийн төв",
        "longitude": 106.92757,
        "latitude": 47.93295
    },
    {
        "id": "000000301",
        "name": "9-р дэлгүүр",
        "longitude": 106.92122,
        "latitude": 47.93774
    },
    {
        "id": "000001556",
        "name": "Рашааны гудамж 2",
        "longitude": 106.92198,
        "latitude": 47.94968
    },
    {
        "id": "000001554",
        "name": "Рашааны гудамж 1",
        "longitude": 106.93107,
        "latitude": 47.94955
    },
    {
        "id": "000001561",
        "name": "Гадна тойруу 4",
        "longitude": 106.94356,
        "latitude": 47.95123
    },
    {
        "id": "000001550",
        "name": "Гадна тойруу 3",
        "longitude": 106.95052,
        "latitude": 47.95393
    },
    {
        "id": "000001548",
        "name": "Гадна тойруу 2",
        "longitude": 106.96221,
        "latitude": 47.95452
    },
    {
        "id": "000001546",
        "name": "Гадна тойруу 1",
        "longitude": 106.9683,
        "latitude": 47.94983
    },
    {
        "id": "000001545",
        "name": "Монелийн 43",
        "longitude": 106.97081,
        "latitude": 47.94691
    },
    {
        "id": "000001213",
        "name": "Цагаан давааны задгай",
        "longitude": 106.97501,
        "latitude": 47.94666
    },
    {
        "id": "000001547",
        "name": "Гадна тойруу 1",
        "longitude": 106.96836,
        "latitude": 47.94984
    },
    {
        "id": "000001549",
        "name": "Гадна тойруу 2",
        "longitude": 106.96271,
        "latitude": 47.95406
    },
    {
        "id": "000001551",
        "name": "Гадна тойруу 3",
        "longitude": 106.95046,
        "latitude": 47.95398
    },
    {
        "id": "000001560",
        "name": "Гадна тойруу 4",
        "longitude": 106.94283,
        "latitude": 47.95111
    },
    {
        "id": "000001555",
        "name": "Рашааны гудамж 1",
        "longitude": 106.93107,
        "latitude": 47.94965
    },
    {
        "id": "000001557",
        "name": "Рашааны гудамж 2",
        "longitude": 106.92196,
        "latitude": 47.94979
    },
    {
        "id": "000001559",
        "name": "Рашааны гудамж 3",
        "longitude": 106.91508,
        "latitude": 47.9491
    },
    {
        "id": "000000769",
        "name": "Капитрон банк",
        "longitude": 106.96598,
        "latitude": 47.9278
    },
    {
        "id": "000000767",
        "name": "Фунтик",
        "longitude": 106.96549,
        "latitude": 47.93328
    },
    {
        "id": "000000765",
        "name": "Цэлмэг хүнс дэлгүүр",
        "longitude": 106.96801,
        "latitude": 47.93841
    },
    {
        "id": "000000763",
        "name": "430-р худаг",
        "longitude": 106.96905,
        "latitude": 47.94056
    },
    {
        "id": "000001244",
        "name": "Монелийн 38",
        "longitude": 106.96977,
        "latitude": 47.94347
    },
    {
        "id": "000001363",
        "name": "Монелийн 43",
        "longitude": 106.96993,
        "latitude": 47.94685
    },
    {
        "id": "000000117",
        "name": "БАЯНХОШУУ",
        "longitude": 106.83829,
        "latitude": 47.96
    },
    {
        "id": "000000114",
        "name": "Жанцан дэлгүүр",
        "longitude": 106.84197,
        "latitude": 47.9554
    },
    {
        "id": "000000641",
        "name": "112-ын Буудал",
        "longitude": 106.85314,
        "latitude": 47.9533
    },
    {
        "id": "000000643",
        "name": "Хөтөл",
        "longitude": 106.85972,
        "latitude": 47.95068
    },
    {
        "id": "000001295",
        "name": "Цэгээн нуур",
        "longitude": 106.86531,
        "latitude": 47.9478
    },
    {
        "id": "000000140",
        "name": "Колонкийн буудал",
        "longitude": 106.86969,
        "latitude": 47.9456
    },
    {
        "id": "000000142",
        "name": "Шинэ буудал",
        "longitude": 106.87533,
        "latitude": 47.94344
    },
    {
        "id": "000001436",
        "name": "626-р худаг",
        "longitude": 106.88114,
        "latitude": 47.94117
    },
    {
        "id": "000000195",
        "name": "Зурагт шинэ эцэс",
        "longitude": 106.88335,
        "latitude": 47.938
    },
    {
        "id": "000000197",
        "name": "Зурагт хуучин эцэс",
        "longitude": 106.88798,
        "latitude": 47.93102
    },
    {
        "id": "000000199",
        "name": "МҮИС",
        "longitude": 106.89373,
        "latitude": 47.92661
    },
    {
        "id": "000000745",
        "name": "1-р Байр",
        "longitude": 106.85184,
        "latitude": 47.91699
    },
    {
        "id": "000000746",
        "name": "11-р Байр",
        "longitude": 106.8465,
        "latitude": 47.91692
    },
    {
        "id": "000000017",
        "name": "23-р байр",
        "longitude": 106.8386,
        "latitude": 47.9169
    },
    {
        "id": "000000013",
        "name": "34-р байр",
        "longitude": 106.83227,
        "latitude": 47.91552
    },
    {
        "id": "000000112",
        "name": "Баян хошуу тойрог",
        "longitude": 106.82885,
        "latitude": 47.95596
    },
    {
        "id": "000000624",
        "name": "Баянхошуу завсар",
        "longitude": 106.83502,
        "latitude": 47.95522
    },
    {
        "id": "000000115",
        "name": "Жанцан дэлгүүр",
        "longitude": 106.84028,
        "latitude": 47.95699
    },
    {
        "id": "000001245",
        "name": "БАЯНХОШУУ",
        "longitude": 106.83886,
        "latitude": 47.96008
    },
    {
        "id": "000000116",
        "name": "Жанцан дэлгүүр",
        "longitude": 106.83897,
        "latitude": 47.95524
    },
    {
        "id": "000000625",
        "name": "Баянхошуу завсар",
        "longitude": 106.8339,
        "latitude": 47.95553
    },
    {
        "id": "000000113",
        "name": "Баян хошуу тойрог",
        "longitude": 106.8275,
        "latitude": 47.95628
    },
    {
        "id": "000000198",
        "name": "МҮИС",
        "longitude": 106.89326,
        "latitude": 47.92714
    },
    {
        "id": "000000196",
        "name": "Зурагт хуучин эцэс",
        "longitude": 106.8868,
        "latitude": 47.93351
    },
    {
        "id": "000000194",
        "name": "Зурагт шинэ эцэс",
        "longitude": 106.88355,
        "latitude": 47.93803
    },
    {
        "id": "000000141",
        "name": "Шинэ буудал",
        "longitude": 106.87446,
        "latitude": 47.94387
    },
    {
        "id": "000000139",
        "name": "Колонкийн буудал",
        "longitude": 106.86894,
        "latitude": 47.94611
    },
    {
        "id": "000001294",
        "name": "Мөнгөн болор угаалга",
        "longitude": 106.86313,
        "latitude": 47.9491
    },
    {
        "id": "000000642",
        "name": "Хөтөл",
        "longitude": 106.85895,
        "latitude": 47.95124
    },
    {
        "id": "000000640",
        "name": "112-н Буудал",
        "longitude": 106.85131,
        "latitude": 47.95419
    },
    {
        "id": "000000186",
        "name": "Эрдмийн ундраа цогцолбор",
        "longitude": 106.86892,
        "latitude": 47.91838
    },
    {
        "id": "000000184",
        "name": "Гэмтлийн эмнэлэг",
        "longitude": 106.85848,
        "latitude": 47.91884
    },
    {
        "id": "000000260",
        "name": "Цагаан байр",
        "longitude": 106.90635,
        "latitude": 47.93339
    },
    {
        "id": "000000215",
        "name": "Чиглэл ХХК",
        "longitude": 106.90557,
        "latitude": 47.93986
    },
    {
        "id": "000000214",
        "name": "Хүчит шонхор зах",
        "longitude": 106.90303,
        "latitude": 47.94398
    },
    {
        "id": "000000212",
        "name": "Дэнжийн 1000-ын зах",
        "longitude": 106.90027,
        "latitude": 47.94623
    },
    {
        "id": "000000210",
        "name": "Зам Гүүрийн Авто Бааз",
        "longitude": 106.89761,
        "latitude": 47.9483
    },
    {
        "id": "000000208",
        "name": "Булгын 6-р гудамж",
        "longitude": 106.89238,
        "latitude": 47.95108
    },
    {
        "id": "000000205",
        "name": "Тоглоомтой дэлгүүр",
        "longitude": 106.88864,
        "latitude": 47.95243
    },
    {
        "id": "000001439",
        "name": "Гахайн байр",
        "longitude": 106.88426,
        "latitude": 47.95575
    },
    {
        "id": "000000204",
        "name": "Автобус бааз",
        "longitude": 106.8814,
        "latitude": 47.95871
    },
    {
        "id": "000001438",
        "name": "Гахайн байр",
        "longitude": 106.88438,
        "latitude": 47.95526
    },
    {
        "id": "000000206",
        "name": "Тоглоомтой дэлгүүр",
        "longitude": 106.88896,
        "latitude": 47.95185
    },
    {
        "id": "000000209",
        "name": "Зам Гүүрийн Авто Бааз",
        "longitude": 106.89734,
        "latitude": 47.94822
    },
    {
        "id": "000000211",
        "name": "Дэнжийн 1000-ын зах",
        "longitude": 106.90148,
        "latitude": 47.94555
    },
    {
        "id": "000000213",
        "name": "Хүчит шонхор зах",
        "longitude": 106.90325,
        "latitude": 47.94297
    },
    {
        "id": "000000216",
        "name": "Чингэлтэй 7-р гудамж",
        "longitude": 106.90647,
        "latitude": 47.9387
    },
    {
        "id": "000000263",
        "name": "39-р сургууль",
        "longitude": 106.90799,
        "latitude": 47.93588
    },
    {
        "id": "000000261",
        "name": "Цагаан байр",
        "longitude": 106.90564,
        "latitude": 47.93281
    },
    {
        "id": "000000189",
        "name": "Барс худалдааны төв",
        "longitude": 106.89276,
        "latitude": 47.90951
    },
    {
        "id": "000001240",
        "name": "Вокзал",
        "longitude": 106.88474,
        "latitude": 47.90954
    },
    {
        "id": "000000678",
        "name": "Автобус бааз",
        "longitude": 106.88172,
        "latitude": 47.9588
    },
    {
        "id": "000000183",
        "name": "М-ойл ШТС",
        "longitude": 106.85714,
        "latitude": 47.91864
    },
    {
        "id": "000000185",
        "name": "Эрдмийн ундраа цогцолбор",
        "longitude": 106.86933,
        "latitude": 47.91825
    },
    {
        "id": "000000703",
        "name": "Кюкүшю Цамхаг",
        "longitude": 106.87624,
        "latitude": 47.91654
    },
    {
        "id": "000001241",
        "name": "Вокзал",
        "longitude": 106.88502,
        "latitude": 47.90922
    },
    {
        "id": "000000335",
        "name": "Шадивлан",
        "longitude": 106.9177,
        "latitude": 48.01522
    },
    {
        "id": "000001296",
        "name": "Шадивлан-1",
        "longitude": 106.92089,
        "latitude": 48.01132
    },
    {
        "id": "000000333",
        "name": "Ар согоот",
        "longitude": 106.92437,
        "latitude": 47.99991
    },
    {
        "id": "000000331",
        "name": "Салхит",
        "longitude": 106.92567,
        "latitude": 47.99331
    },
    {
        "id": "000001258",
        "name": "Салхит завсар-3",
        "longitude": 106.92511,
        "latitude": 47.98865
    },
    {
        "id": "000001256",
        "name": "Салхит завсар-2",
        "longitude": 106.92361,
        "latitude": 47.98344
    },
    {
        "id": "000001254",
        "name": "Салхит завсар-1",
        "longitude": 106.92049,
        "latitude": 47.98006
    },
    {
        "id": "000000314",
        "name": "Замын цагдаагийн пост",
        "longitude": 106.91797,
        "latitude": 47.97417
    },
    {
        "id": "000000241",
        "name": "7 БУУДАЛ",
        "longitude": 106.91723,
        "latitude": 47.96827
    },
    {
        "id": "000000243",
        "name": "6 буудал",
        "longitude": 106.91725,
        "latitude": 47.96502
    },
    {
        "id": "000001444",
        "name": "Нэгдсэн үйлчилгээний төв",
        "longitude": 106.91672,
        "latitude": 47.96128
    },
    {
        "id": "000000245",
        "name": "7 Завсар",
        "longitude": 106.91593,
        "latitude": 47.95819
    },
    {
        "id": "000000247",
        "name": "5 буудал",
        "longitude": 106.915,
        "latitude": 47.95455
    },
    {
        "id": "000000265",
        "name": "57-р сургууль",
        "longitude": 106.91184,
        "latitude": 47.93957
    },
    {
        "id": "000000754",
        "name": "Өнхрүүш компани",
        "longitude": 106.81057,
        "latitude": 47.92849
    },
    {
        "id": "000000752",
        "name": "Хуруувчхан дэлгүүр",
        "longitude": 106.8115,
        "latitude": 47.93242
    },
    {
        "id": "000000750",
        "name": "Шар тал дэлгүүр",
        "longitude": 106.81148,
        "latitude": 47.93573
    },
    {
        "id": "000000262",
        "name": "39-р сургууль",
        "longitude": 106.90946,
        "latitude": 47.93753
    },
    {
        "id": "000000264",
        "name": "57-р сургууль",
        "longitude": 106.91273,
        "latitude": 47.93951
    },
    {
        "id": "000000268",
        "name": "17-р сургууль",
        "longitude": 106.91423,
        "latitude": 47.95046
    },
    {
        "id": "000000246",
        "name": "5 буудал",
        "longitude": 106.91539,
        "latitude": 47.95517
    },
    {
        "id": "000000244",
        "name": "7 Завсар",
        "longitude": 106.91631,
        "latitude": 47.95874
    },
    {
        "id": "000001443",
        "name": "Нэгдсэн үйлчилгээний төв",
        "longitude": 106.91709,
        "latitude": 47.96166
    },
    {
        "id": "000000242",
        "name": "6 буудал",
        "longitude": 106.91752,
        "latitude": 47.96576
    },
    {
        "id": "000000240",
        "name": "7 буудал",
        "longitude": 106.91751,
        "latitude": 47.96906
    },
    {
        "id": "000000313",
        "name": "Замын цагдаагийн пост",
        "longitude": 106.91829,
        "latitude": 47.97472
    },
    {
        "id": "000001255",
        "name": "Салхит завсар-1",
        "longitude": 106.92126,
        "latitude": 47.98055
    },
    {
        "id": "000001257",
        "name": "Салхит завсар-2",
        "longitude": 106.92415,
        "latitude": 47.98395
    },
    {
        "id": "000001342",
        "name": "Салхит завсар-3",
        "longitude": 106.92537,
        "latitude": 47.98939
    },
    {
        "id": "000000330",
        "name": "Салхит",
        "longitude": 106.92587,
        "latitude": 47.99407
    },
    {
        "id": "000000332",
        "name": "Ар согоот",
        "longitude": 106.92448,
        "latitude": 48.00101
    },
    {
        "id": "000000900",
        "name": "Зунжин худалдааны төв",
        "longitude": 106.92339,
        "latitude": 48.00525
    },
    {
        "id": "000001297",
        "name": "Шадивлан-1",
        "longitude": 106.92067,
        "latitude": 48.01201
    },
    {
        "id": "000001449",
        "name": "Шадивлан",
        "longitude": 106.9176,
        "latitude": 48.01528
    },
    {
        "id": "000000230",
        "name": "ЗҮРХ УУЛ /Чингэлтэйн эцэс/",
        "longitude": 106.87386,
        "latitude": 48.00035
    },
    {
        "id": "000000229",
        "name": "Зүрх уулын 2-р зогсоол",
        "longitude": 106.87724,
        "latitude": 47.99476
    },
    {
        "id": "000000227",
        "name": "Зүрх уулын 1-р зогсоол",
        "longitude": 106.88147,
        "latitude": 47.98982
    },
    {
        "id": "000000232",
        "name": "Чингэлтэйн хуучин эцэс",
        "longitude": 106.88299,
        "latitude": 47.98506
    },
    {
        "id": "000000225",
        "name": "Уран мандал ХД",
        "longitude": 106.88808,
        "latitude": 47.9812
    },
    {
        "id": "000000235",
        "name": "Хорооны буудал",
        "longitude": 106.8929,
        "latitude": 47.97776
    },
    {
        "id": "000000234",
        "name": "Камель дэлгүүр",
        "longitude": 106.90091,
        "latitude": 47.97442
    },
    {
        "id": "000000238",
        "name": "Сургуулийн буудал",
        "longitude": 106.90528,
        "latitude": 47.97142
    },
    {
        "id": "000000665",
        "name": "Ногоон булаг",
        "longitude": 106.91168,
        "latitude": 47.96955
    },
    {
        "id": "000000300",
        "name": "Ногоон нуур буудал",
        "longitude": 106.91599,
        "latitude": 47.93502
    },
    {
        "id": "000000239",
        "name": "Чингэлтэйн 1-р буудал",
        "longitude": 106.91556,
        "latitude": 47.96913
    },
    {
        "id": "000000664",
        "name": "Ногоон булаг",
        "longitude": 106.91064,
        "latitude": 47.96999
    },
    {
        "id": "000000237",
        "name": "Сургуулийн буудал",
        "longitude": 106.90359,
        "latitude": 47.97261
    },
    {
        "id": "000000233",
        "name": "Камель дэлгүүр",
        "longitude": 106.89985,
        "latitude": 47.97497
    },
    {
        "id": "000000236",
        "name": "Хорооны буудал",
        "longitude": 106.89253,
        "latitude": 47.97821
    },
    {
        "id": "000000226",
        "name": "Уран мандал ХД",
        "longitude": 106.88667,
        "latitude": 47.98238
    },
    {
        "id": "000000231",
        "name": "Чингэлтэйн хуучин эцэс",
        "longitude": 106.88303,
        "latitude": 47.98556
    },
    {
        "id": "000000228",
        "name": "Зүрх уулын 2-р зогсоол",
        "longitude": 106.87677,
        "latitude": 47.99579
    },
    {
        "id": "000001248",
        "name": "ЗҮРХ УУЛ /Чингэлтэйн эцэс/",
        "longitude": 106.87399,
        "latitude": 48.00048
    },
    {
        "id": "000000756",
        "name": "ТЭЦ4",
        "longitude": 106.7976,
        "latitude": 47.89065
    },
    {
        "id": "000001303",
        "name": "Зогсоол-5",
        "longitude": 106.80023,
        "latitude": 47.89082
    },
    {
        "id": "000001301",
        "name": "Зогсоол-4",
        "longitude": 106.81081,
        "latitude": 47.89122
    },
    {
        "id": "000001191",
        "name": "Зогсоол-3",
        "longitude": 106.81735,
        "latitude": 47.89365
    },
    {
        "id": "000001189",
        "name": "Зогсоол-2",
        "longitude": 106.82519,
        "latitude": 47.89745
    },
    {
        "id": "000001187",
        "name": "Зогсоол-1",
        "longitude": 106.83877,
        "latitude": 47.89838
    },
    {
        "id": "000001470",
        "name": "Говь 2",
        "longitude": 106.84628,
        "latitude": 47.89883
    },
    {
        "id": "000001186",
        "name": "ОУБДС",
        "longitude": 106.85099,
        "latitude": 47.90065
    },
    {
        "id": "000000681",
        "name": "ОУБДС",
        "longitude": 106.85052,
        "latitude": 47.90029
    },
    {
        "id": "000001469",
        "name": "Говь 2",
        "longitude": 106.84396,
        "latitude": 47.89882
    },
    {
        "id": "000001188",
        "name": "Зогсоол-1",
        "longitude": 106.83757,
        "latitude": 47.89838
    },
    {
        "id": "000001190",
        "name": "Зогсоол-2",
        "longitude": 106.824,
        "latitude": 47.89748
    },
    {
        "id": "000001192",
        "name": "Зогсоол-3",
        "longitude": 106.81653,
        "latitude": 47.89284
    },
    {
        "id": "000001300",
        "name": "Зогсоол-4",
        "longitude": 106.80964,
        "latitude": 47.89135
    },
    {
        "id": "000001302",
        "name": "Зогсоол-5",
        "longitude": 106.79906,
        "latitude": 47.891
    },
    {
        "id": "000001465",
        "name": "ТЭЦ4",
        "longitude": 106.79763,
        "latitude": 47.89053
    },
    {
        "id": "000001468",
        "name": "Зүрх уулын 1-р зогсоол",
        "longitude": 106.88138,
        "latitude": 47.99021
    },
    {
        "id": "000001535",
        "name": "Дүүхээ дэлгүүр",
        "longitude": 106.86803,
        "latitude": 47.92234
    },
    {
        "id": "000000706",
        "name": "Тоосгоны Үйлдвэр Эцэс",
        "longitude": 106.95759,
        "latitude": 47.98332
    },
    {
        "id": "000000704",
        "name": "Тоосгоны Үйлдвэр",
        "longitude": 106.94996,
        "latitude": 47.98106
    },
    {
        "id": "000000591",
        "name": "Дарь эх Завсар 2",
        "longitude": 106.93792,
        "latitude": 47.97763
    },
    {
        "id": "000000479",
        "name": "Дарь эх завсар 1",
        "longitude": 106.93149,
        "latitude": 47.9735
    },
    {
        "id": "000000488",
        "name": "33-ын буудал",
        "longitude": 106.93043,
        "latitude": 47.97118
    },
    {
        "id": "000001162",
        "name": "Станц",
        "longitude": 106.93101,
        "latitude": 47.96497
    },
    {
        "id": "000001164",
        "name": "Сод Монгол ШТС",
        "longitude": 106.93353,
        "latitude": 47.95962
    },
    {
        "id": "000000481",
        "name": "Ганц худаг",
        "longitude": 106.93382,
        "latitude": 47.95508
    },
    {
        "id": "000000485",
        "name": "Дарь эх Шинэ эцэс",
        "longitude": 106.93288,
        "latitude": 47.95078
    },
    {
        "id": "000000484",
        "name": "Дарь эх Шинэ эцэс",
        "longitude": 106.93337,
        "latitude": 47.95155
    },
    {
        "id": "000000603",
        "name": "Ганц худаг",
        "longitude": 106.93381,
        "latitude": 47.95653
    },
    {
        "id": "000001165",
        "name": "Сод Монгол ШТС",
        "longitude": 106.9334,
        "latitude": 47.9604
    },
    {
        "id": "000001163",
        "name": "Станц",
        "longitude": 106.93085,
        "latitude": 47.96544
    },
    {
        "id": "000000489",
        "name": "33-ын буудал",
        "longitude": 106.93099,
        "latitude": 47.97226
    },
    {
        "id": "000000478",
        "name": "Дарь эх завсар 1",
        "longitude": 106.93251,
        "latitude": 47.97442
    },
    {
        "id": "000000590",
        "name": "Дарь эх Завсар 2",
        "longitude": 106.93789,
        "latitude": 47.97748
    },
    {
        "id": "000000705",
        "name": "Тоосгоны Үйлдвэр",
        "longitude": 106.95107,
        "latitude": 47.98126
    },
    {
        "id": "000001249",
        "name": "Тоосгоны Үйлдвэр Эцэс",
        "longitude": 106.95765,
        "latitude": 47.98315
    },
    {
        "id": "000000709",
        "name": "Дүнжингарав дэлгүүр",
        "longitude": 107.00376,
        "latitude": 47.90694
    },
    {
        "id": "000000710",
        "name": "2-ын Буудал",
        "longitude": 106.99549,
        "latitude": 47.90522
    },
    {
        "id": "000000682",
        "name": "Жанжин Клуб",
        "longitude": 106.99379,
        "latitude": 47.90726
    },
    {
        "id": "000000683",
        "name": "2-ын Буудал",
        "longitude": 106.99638,
        "latitude": 47.90508
    },
    {
        "id": "000000684",
        "name": "Дүнжингарав дэлгүүр",
        "longitude": 107.00387,
        "latitude": 47.90687
    },
    {
        "id": "000001140",
        "name": "Өвөр согоот",
        "longitude": 106.92511,
        "latitude": 48.01703
    },
    {
        "id": "000000644",
        "name": "Өвөр-Согоот 1-р зогсоол",
        "longitude": 106.93011,
        "latitude": 48.01369
    },
    {
        "id": "000000794",
        "name": "Худгийн зогсоол",
        "longitude": 106.93444,
        "latitude": 48.01106
    },
    {
        "id": "000000803",
        "name": "Өвөр согоот Усан сан",
        "longitude": 106.93788,
        "latitude": 48.00213
    },
    {
        "id": "000000680",
        "name": "Япон цэргийн цогцолбор",
        "longitude": 106.93925,
        "latitude": 47.99771
    },
    {
        "id": "000000801",
        "name": "65-ын зогсоол",
        "longitude": 106.93769,
        "latitude": 47.99084
    },
    {
        "id": "000000321",
        "name": "Сургуулийн буудал",
        "longitude": 106.93682,
        "latitude": 47.98716
    },
    {
        "id": "000000799",
        "name": "Дамбадаржаа хийд",
        "longitude": 106.93491,
        "latitude": 47.98141
    },
    {
        "id": "000000316",
        "name": "Миний зах",
        "longitude": 106.92752,
        "latitude": 47.97747
    },
    {
        "id": "000000315",
        "name": "Миний зах",
        "longitude": 106.92854,
        "latitude": 47.97759
    },
    {
        "id": "000000798",
        "name": "Дамбадаржаа хийд",
        "longitude": 106.93565,
        "latitude": 47.98264
    },
    {
        "id": "000000320",
        "name": "Сургуулийн буудал",
        "longitude": 106.93703,
        "latitude": 47.98777
    },
    {
        "id": "000000800",
        "name": "65-ын зогсоол",
        "longitude": 106.93829,
        "latitude": 47.99178
    },
    {
        "id": "000000322",
        "name": "ЯПОН ЦЭРГИЙН ЦОГЦОЛБОР",
        "longitude": 106.93965,
        "latitude": 47.99619
    },
    {
        "id": "000000802",
        "name": "Өвөр согоот Усан сан",
        "longitude": 106.93783,
        "latitude": 48.00282
    },
    {
        "id": "000000795",
        "name": "Худгийн зогсоол",
        "longitude": 106.9339,
        "latitude": 48.01162
    },
    {
        "id": "000000793",
        "name": "Өвөр согоот",
        "longitude": 106.925,
        "latitude": 48.01727
    },
    {
        "id": "000001179",
        "name": "Сэлх ",
        "longitude": 106.96591,
        "latitude": 48.04162
    },
    {
        "id": "000001177",
        "name": "Сэлх 6",
        "longitude": 106.96432,
        "latitude": 48.03551
    },
    {
        "id": "000001175",
        "name": "Сэлх 5",
        "longitude": 106.96387,
        "latitude": 48.03052
    },
    {
        "id": "000001173",
        "name": "Сэлх 4",
        "longitude": 106.96336,
        "latitude": 48.02498
    },
    {
        "id": "000001171",
        "name": "Сэлх 3",
        "longitude": 106.96764,
        "latitude": 48.01757
    },
    {
        "id": "000001169",
        "name": "Сэлх 2",
        "longitude": 106.97146,
        "latitude": 48.01253
    },
    {
        "id": "000001167",
        "name": "Сэлх 1",
        "longitude": 106.97635,
        "latitude": 48.00809
    },
    {
        "id": "000000595",
        "name": "Дерийм дэлгүүр",
        "longitude": 106.9762,
        "latitude": 48.00276
    },
    {
        "id": "000000593",
        "name": "71-р Сургууль",
        "longitude": 106.97285,
        "latitude": 47.9992
    },
    {
        "id": "000000598",
        "name": "Бэлхийн хуучин эцэс",
        "longitude": 106.96672,
        "latitude": 47.9959
    },
    {
        "id": "000000328",
        "name": "Цэнхэр ТҮЦ",
        "longitude": 106.959,
        "latitude": 47.99209
    },
    {
        "id": "000000326",
        "name": "Цагаан худаг",
        "longitude": 106.95371,
        "latitude": 47.98947
    },
    {
        "id": "000000599",
        "name": "Нарийн гудамж",
        "longitude": 106.94723,
        "latitude": 47.98631
    },
    {
        "id": "000000324",
        "name": "Дамбадаржаа завсар",
        "longitude": 106.94358,
        "latitude": 47.98451
    },
    {
        "id": "000000318",
        "name": "Хаан банк",
        "longitude": 106.93905,
        "latitude": 47.98207
    },
    {
        "id": "000000319",
        "name": "Хаан банк",
        "longitude": 106.93996,
        "latitude": 47.9825
    },
    {
        "id": "000000323",
        "name": "Дамбадаржаа завсар",
        "longitude": 106.94431,
        "latitude": 47.98471
    },
    {
        "id": "000000600",
        "name": "Нарийн гудамж",
        "longitude": 106.94862,
        "latitude": 47.98673
    },
    {
        "id": "000000325",
        "name": "Цагаан худаг",
        "longitude": 106.95431,
        "latitude": 47.98962
    },
    {
        "id": "000000327",
        "name": "Цэнхэр ТҮЦ",
        "longitude": 106.96008,
        "latitude": 47.99245
    },
    {
        "id": "000000329",
        "name": "БЭЛХИЙН ХУУЧИН ЭЦЭС",
        "longitude": 106.96614,
        "latitude": 47.99547
    },
    {
        "id": "000000592",
        "name": "71-р Сургууль",
        "longitude": 106.97297,
        "latitude": 47.99886
    },
    {
        "id": "000000594",
        "name": "Дерийм дэлгүүр",
        "longitude": 106.977,
        "latitude": 48.00333
    },
    {
        "id": "000001168",
        "name": "Сэлх 1",
        "longitude": 106.97352,
        "latitude": 48.00997
    },
    {
        "id": "000001170",
        "name": "Сэлх 2",
        "longitude": 106.97076,
        "latitude": 48.0136
    },
    {
        "id": "000001172",
        "name": "Сэлх 3",
        "longitude": 106.96722,
        "latitude": 48.01871
    },
    {
        "id": "000001174",
        "name": "Сэлх 4",
        "longitude": 106.96323,
        "latitude": 48.02557
    },
    {
        "id": "000001176",
        "name": "Сэлх 5",
        "longitude": 106.96423,
        "latitude": 48.03129
    },
    {
        "id": "000001178",
        "name": "Сэлх 6",
        "longitude": 106.96455,
        "latitude": 48.03623
    },
    {
        "id": "000001250",
        "name": "Сэлх",
        "longitude": 106.96628,
        "latitude": 48.04168
    },
    {
        "id": "000000361",
        "name": "Сэлбэ амралт",
        "longitude": 107.00335,
        "latitude": 48.05783
    },
    {
        "id": "000000726",
        "name": "Мандхай",
        "longitude": 107.00317,
        "latitude": 48.04973
    },
    {
        "id": "000000728",
        "name": "Сэлбэ 8",
        "longitude": 107.00283,
        "latitude": 48.04518
    },
    {
        "id": "000000730",
        "name": "Сэлбэ 7",
        "longitude": 107.00299,
        "latitude": 48.04009
    },
    {
        "id": "000000732",
        "name": "Сэлбэ 6",
        "longitude": 107.00292,
        "latitude": 48.03529
    },
    {
        "id": "000000734",
        "name": "Сэлбэ 5",
        "longitude": 107.00079,
        "latitude": 48.02974
    },
    {
        "id": "000000736",
        "name": "Сэлбэ 4",
        "longitude": 106.99744,
        "latitude": 48.02349
    },
    {
        "id": "000000738",
        "name": "Сэлбэ 3",
        "longitude": 106.99546,
        "latitude": 48.02049
    },
    {
        "id": "000000740",
        "name": "Сэлбэ 2",
        "longitude": 106.9901,
        "latitude": 48.01585
    },
    {
        "id": "000000742",
        "name": "Сэлбэ 1",
        "longitude": 106.98415,
        "latitude": 48.01123
    },
    {
        "id": "000000360",
        "name": "СБД 20-р хороо",
        "longitude": 106.98219,
        "latitude": 48.00953
    },
    {
        "id": "000000597",
        "name": "Түмэн баялаг дэлгүүр",
        "longitude": 106.97963,
        "latitude": 48.00662
    },
    {
        "id": "000000601",
        "name": "Дамбадаржаа",
        "longitude": 106.93829,
        "latitude": 47.97966
    },
    {
        "id": "000000277",
        "name": "Аэрофлот",
        "longitude": 106.90041,
        "latitude": 47.91322
    },
    {
        "id": "000000154",
        "name": "Панасоник төв",
        "longitude": 106.88735,
        "latitude": 47.91431
    },
    {
        "id": "000000276",
        "name": "Наран их дэлгүүр",
        "longitude": 106.90063,
        "latitude": 47.91295
    },
    {
        "id": "000000317",
        "name": "Дамбадаржаа",
        "longitude": 106.93837,
        "latitude": 47.98
    },
    {
        "id": "000000596",
        "name": "Бүрнэ Бадар дэлгүүр",
        "longitude": 106.98021,
        "latitude": 48.00704
    },
    {
        "id": "000000744",
        "name": "СБД 20-р хороо",
        "longitude": 106.98257,
        "latitude": 48.00966
    },
    {
        "id": "000000743",
        "name": "Сэлбэ 1",
        "longitude": 106.98502,
        "latitude": 48.01169
    },
    {
        "id": "000000741",
        "name": "Сэлбэ 2",
        "longitude": 106.99105,
        "latitude": 48.01626
    },
    {
        "id": "000000739",
        "name": "Сэлбэ 3",
        "longitude": 106.99611,
        "latitude": 48.02113
    },
    {
        "id": "000000737",
        "name": "Сэлбэ 4",
        "longitude": 106.99808,
        "latitude": 48.02412
    },
    {
        "id": "000000735",
        "name": "Сэлбэ 5",
        "longitude": 107.00126,
        "latitude": 48.03033
    },
    {
        "id": "000000733",
        "name": "Сэлбэ 6",
        "longitude": 107.00326,
        "latitude": 48.03598
    },
    {
        "id": "000000731",
        "name": "Сэлбэ 7",
        "longitude": 107.00312,
        "latitude": 48.04138
    },
    {
        "id": "000000729",
        "name": "Сэлбэ 8",
        "longitude": 107.00313,
        "latitude": 48.04675
    },
    {
        "id": "000000727",
        "name": "Мандхай",
        "longitude": 107.00343,
        "latitude": 48.05036
    },
    {
        "id": "000001251",
        "name": "Сэлбэ амралт",
        "longitude": 107.00367,
        "latitude": 48.05797
    },
    {
        "id": "000000404",
        "name": "БЗД 6-р хороо",
        "longitude": 106.93656,
        "latitude": 47.9128
    },
    {
        "id": "000000309",
        "name": "Шинэ үе дунд сургууль",
        "longitude": 106.92738,
        "latitude": 47.91258
    },
    {
        "id": "000000608",
        "name": "Эрүүл мэнд Спортын Яам",
        "longitude": 106.9212,
        "latitude": 47.91515
    },
    {
        "id": "000000308",
        "name": "Хүүхдийн парк",
        "longitude": 106.9224,
        "latitude": 47.91312
    },
    {
        "id": "000000310",
        "name": "Шинэ үе дунд сургууль",
        "longitude": 106.92738,
        "latitude": 47.91243
    },
    {
        "id": "000000403",
        "name": "Натур худалдааны төв",
        "longitude": 106.93879,
        "latitude": 47.91259
    },
    {
        "id": "000001252",
        "name": "Жанжин Клуб",
        "longitude": 106.99407,
        "latitude": 47.90726
    },
    {
        "id": "000000399",
        "name": "УЛИАСТАЙН ШИНЭ ЭЦЭС",
        "longitude": 107.0338,
        "latitude": 47.91763
    },
    {
        "id": "000000398",
        "name": "Улиастайн хуучин эцэс",
        "longitude": 107.03694,
        "latitude": 47.91292
    },
    {
        "id": "000000397",
        "name": "Улиастайн хуучин эцэс",
        "longitude": 107.03714,
        "latitude": 47.91284
    },
    {
        "id": "000000611",
        "name": "Улиастай Шинэ Эцэс",
        "longitude": 107.03414,
        "latitude": 47.91754
    },
    {
        "id": "000001012",
        "name": "Сансар /Тунель/",
        "longitude": 106.94128,
        "latitude": 47.92421
    },
    {
        "id": "000001349",
        "name": "Монгол Улсын Их Сургууль",
        "longitude": 106.92032,
        "latitude": 47.92247
    },
    {
        "id": "000001002",
        "name": "Сүхбаатарын талбай",
        "longitude": 106.91768,
        "latitude": 47.91674
    },
    {
        "id": "000000290",
        "name": "64-р дэлгүүр",
        "longitude": 106.92692,
        "latitude": 47.92269
    },
    {
        "id": "000001362",
        "name": "Монелийн 43",
        "longitude": 106.96976,
        "latitude": 47.94684
    },
    {
        "id": "000000307",
        "name": "Монгол Улсын Их Сургууль",
        "longitude": 106.92211,
        "latitude": 47.92247
    },
    {
        "id": "000000292",
        "name": "11-р хороолол",
        "longitude": 106.92698,
        "latitude": 47.9277
    },
    {
        "id": "000000460",
        "name": "ГАЧУУРТЫН ЭЦЭС",
        "longitude": 107.16234,
        "latitude": 47.92834
    },
    {
        "id": "000000459",
        "name": "Дундын буудал",
        "longitude": 107.1538,
        "latitude": 47.92906
    },
    {
        "id": "000000462",
        "name": "Баруун дэнж",
        "longitude": 107.14331,
        "latitude": 47.92715
    },
    {
        "id": "000000791",
        "name": "Монгол шилтгээн",
        "longitude": 107.13299,
        "latitude": 47.92363
    },
    {
        "id": "000000789",
        "name": "Цагаан дэлгүүр",
        "longitude": 107.12466,
        "latitude": 47.92063
    },
    {
        "id": "000000712",
        "name": "Зам анги",
        "longitude": 107.11526,
        "latitude": 47.91799
    },
    {
        "id": "000000787",
        "name": "Хүлэмж",
        "longitude": 107.10253,
        "latitude": 47.9164
    },
    {
        "id": "000000455",
        "name": "Цагдаагийн пост",
        "longitude": 107.092,
        "latitude": 47.91584
    },
    {
        "id": "000000785",
        "name": "Далан",
        "longitude": 107.08337,
        "latitude": 47.91589
    },
    {
        "id": "000000786",
        "name": "Далан",
        "longitude": 107.0858,
        "latitude": 47.91577
    },